[{"name":"ON24","category_code":"web","city":"San Francisco","Latitude":37.7850326,"Longitude":-122.4004738,"position":{"type":"Point","coordinates":[-122.4004738,37.7850326]}},{"name":"Neocase Software","category_code":"software","city":"San Francisco","Latitude":37.785655,"Longitude":-122.398393,"position":{"type":"Point","coordinates":[-122.398393,37.785655]}},{"name":"CITTIO","category_code":"software","city":"San Francisco","Latitude":37.7867612,"Longitude":-122.4014585,"position":{"type":"Point","coordinates":[-122.4014585,37.7867612]}},{"name":"Kongregate","category_code":"games_video","city":"San Francisco","Latitude":37.786942,"Longitude":-122.401245,"position":{"type":"Point","coordinates":[-122.401245,37.786942]}},{"name":"Playboox","category_code":"software","city":"San Francisco","Latitude":37.7870283,"Longitude":-122.4000192,"position":{"type":"Point","coordinates":[-122.4000192,37.7870283]}},{"name":"Curse","category_code":"games_video","city":"San Francisco","Latitude":37.787092,"Longitude":-122.399972,"position":{"type":"Point","coordinates":[-122.399972,37.787092]}},{"name":"Lolapps","category_code":"web","city":"San Francisco","Latitude":37.7870923,"Longitude":-122.3999719,"position":{"type":"Point","coordinates":[-122.3999719,37.7870923]}},{"name":"Lolapps","category_code":"web","city":"San Francisco","Latitude":37.7870923,"Longitude":-122.3999719,"position":{"type":"Point","coordinates":[-122.3999719,37.7870923]}},{"name":"Eightfold Logic","category_code":"advertising","city":"San Francisco","Latitude":37.7870841,"Longitude":-122.4010675,"position":{"type":"Point","coordinates":[-122.4010675,37.7870841]}},{"name":"Donnorwood Media","category_code":"web","city":"San Francisco","Latitude":37.785271,"Longitude":-122.397582,"position":{"type":"Point","coordinates":[-122.397582,37.785271]}},{"name":"Super Duper Burgers","category_code":"burger","city":"San Francisco","Latitude":37.7848155,"Longitude":-122.4035366,"position":{"type":"Point","coordinates":[-122.4035366,37.7848155]}},{"name":"eXelate","category_code":"advertising","city":"San Francisco","Latitude":37.787249,"Longitude":-122.3990501,"position":{"type":"Point","coordinates":[-122.3990501,37.787249]}},{"name":"Roundbox","category_code":"software","city":"San Francisco","Latitude":37.7864636,"Longitude":-122.3978187,"position":{"type":"Point","coordinates":[-122.3978187,37.7864636]}},{"name":"Starbucks","category_code":"Starbucks","city":"San Francisco","Latitude":37.787764,"Longitude":-122.401087,"position":{"type":"Point","coordinates":[-122.401087,37.787764]}},{"name":"Innotas","category_code":"software","city":"San Francisco","Latitude":37.787722,"Longitude":-122.3993979,"position":{"type":"Point","coordinates":[-122.3993979,37.787722]}},{"name":"Innotas","category_code":"software","city":"San Francisco","Latitude":37.787722,"Longitude":-122.3993979,"position":{"type":"Point","coordinates":[-122.3993979,37.787722]}},{"name":"Tropisue\u00f1o Mexican Kitchen","category_code":"mexican","city":"San Francisco","Latitude":37.7853583,"Longitude":-122.40405,"position":{"type":"Point","coordinates":[-122.40405,37.7853583]}},{"name":"HubPages","category_code":"web","city":"San Francisco","Latitude":37.7876952,"Longitude":-122.3991505,"position":{"type":"Point","coordinates":[-122.3991505,37.7876952]}},{"name":"Reframe It","category_code":"web","city":"San Francisco","Latitude":37.782163,"Longitude":-122.400591,"position":{"type":"Point","coordinates":[-122.400591,37.782163]}},{"name":"Disqus","category_code":"web","city":"San Francisco","Latitude":37.786906,"Longitude":-122.397672,"position":{"type":"Point","coordinates":[-122.397672,37.786906]}},{"name":"Lexy","category_code":"games_video","city":"San Francisco","Latitude":37.786906,"Longitude":-122.397672,"position":{"type":"Point","coordinates":[-122.397672,37.786906]}},{"name":"Songbird","category_code":"mobile","city":"San Francisco","Latitude":37.787126,"Longitude":-122.39783,"position":{"type":"Point","coordinates":[-122.39783,37.787126]}},{"name":"SendMe","category_code":"mobile","city":"San Francisco","Latitude":37.787126,"Longitude":-122.39783,"position":{"type":"Point","coordinates":[-122.39783,37.787126]}},{"name":"Bebo","category_code":"web","city":"San Francisco","Latitude":37.782103,"Longitude":-122.401116,"position":{"type":"Point","coordinates":[-122.401116,37.782103]}},{"name":"Yoono","category_code":"web","city":"San Francisco","Latitude":37.787204,"Longitude":-122.397884,"position":{"type":"Point","coordinates":[-122.397884,37.787204]}},{"name":"YieldBuild","category_code":"advertising","city":"San Francisco","Latitude":37.7877967,"Longitude":-122.3989376,"position":{"type":"Point","coordinates":[-122.3989376,37.7877967]}},{"name":"Adteractive","category_code":"advertising","city":"San Francisco","Latitude":37.78554,"Longitude":-122.396689,"position":{"type":"Point","coordinates":[-122.396689,37.78554]}},{"name":"LiveRail","category_code":"advertising","city":"San Francisco","Latitude":37.787183,"Longitude":-122.397759,"position":{"type":"Point","coordinates":[-122.397759,37.787183]}},{"name":"Kate O'Brien's Irish Bar & Grill","category_code":"pub","city":"San Francisco","Latitude":37.7870655,"Longitude":-122.3974916,"position":{"type":"Point","coordinates":[-122.3974916,37.7870655]}},{"name":"Exent","category_code":"games_video","city":"San Francisco","Latitude":37.787646,"Longitude":-122.402759,"position":{"type":"Point","coordinates":[-122.402759,37.787646]}},{"name":"Stylehive","category_code":"ecommerce","city":"San Francisco","Latitude":37.787646,"Longitude":-122.402759,"position":{"type":"Point","coordinates":[-122.402759,37.787646]}},{"name":"Keibi Technologies","category_code":"software","city":"San Francisco","Latitude":37.787646,"Longitude":-122.402759,"position":{"type":"Point","coordinates":[-122.402759,37.787646]}},{"name":"TerraPass","category_code":"web","city":"San Francisco","Latitude":37.787445,"Longitude":-122.397847,"position":{"type":"Point","coordinates":[-122.397847,37.787445]}},{"name":"Granicus","category_code":"software","city":"San Francisco","Latitude":37.787445,"Longitude":-122.397847,"position":{"type":"Point","coordinates":[-122.397847,37.787445]}},{"name":"Super Duper Burgers","category_code":"burger","city":"San Francisco","Latitude":37.7868541,"Longitude":-122.4039683,"position":{"type":"Point","coordinates":[-122.4039683,37.7868541]}},{"name":"TeachScape","category_code":"software","city":"San Francisco","Latitude":37.7869047,"Longitude":-122.4043924,"position":{"type":"Point","coordinates":[-122.4043924,37.7869047]}},{"name":"InnerRewards","category_code":"ecommerce","city":"San Francisco","Latitude":37.78691,"Longitude":-122.404403,"position":{"type":"Point","coordinates":[-122.404403,37.78691]}},{"name":"InnerRewards","category_code":"ecommerce","city":"San Francisco","Latitude":37.78691,"Longitude":-122.404403,"position":{"type":"Point","coordinates":[-122.404403,37.78691]}},{"name":"hi5","category_code":"games_video","city":"San Francisco","Latitude":37.788668,"Longitude":-122.400558,"position":{"type":"Point","coordinates":[-122.400558,37.788668]}},{"name":"Involver","category_code":"software","city":"San Francisco","Latitude":37.788653,"Longitude":-122.401333,"position":{"type":"Point","coordinates":[-122.401333,37.788653]}},{"name":"Adknowledge","category_code":"advertising","city":"San Francisco","Latitude":37.78866,"Longitude":-122.401406,"position":{"type":"Point","coordinates":[-122.401406,37.78866]}},{"name":"Transpera","category_code":"mobile","city":"San Francisco","Latitude":37.785792,"Longitude":-122.405081,"position":{"type":"Point","coordinates":[-122.405081,37.785792]}},{"name":"City Nights","category_code":"nightclub","city":"San Francisco","Latitude":37.7820604,"Longitude":-122.3976355,"position":{"type":"Point","coordinates":[-122.3976355,37.7820604]}},{"name":"OpenTable","category_code":"web","city":"San Francisco","Latitude":37.785647,"Longitude":-122.405265,"position":{"type":"Point","coordinates":[-122.405265,37.785647]}},{"name":"Marketcetera","category_code":"software","city":"San Francisco","Latitude":37.788864,"Longitude":-122.4008487,"position":{"type":"Point","coordinates":[-122.4008487,37.788864]}},{"name":"Temple Nightclub San Francisco","category_code":"nightclub","city":"San Francisco","Latitude":37.787956,"Longitude":-122.3972472,"position":{"type":"Point","coordinates":[-122.3972472,37.787956]}},{"name":"DocVerse","category_code":"web","city":"San Francisco","Latitude":37.788115,"Longitude":-122.397141,"position":{"type":"Point","coordinates":[-122.397141,37.788115]}},{"name":"Lookery","category_code":"web","city":"San Francisco","Latitude":37.788266,"Longitude":-122.403865,"position":{"type":"Point","coordinates":[-122.403865,37.788266]}},{"name":"Globant","category_code":"software","city":"San Francisco","Latitude":37.7819286,"Longitude":-122.4041764,"position":{"type":"Point","coordinates":[-122.4041764,37.7819286]}},{"name":"Roost","category_code":"software","city":"San Francisco","Latitude":37.7891288,"Longitude":-122.4020276,"position":{"type":"Point","coordinates":[-122.4020276,37.7891288]}},{"name":"Rupture","category_code":"games_video","city":"San Francisco","Latitude":37.783898,"Longitude":-122.395234,"position":{"type":"Point","coordinates":[-122.395234,37.783898]}},{"name":"kwiry","category_code":"mobile","city":"San Francisco","Latitude":37.7885714,"Longitude":-122.4035985,"position":{"type":"Point","coordinates":[-122.4035985,37.7885714]}},{"name":"Huddler","category_code":"web","city":"San Francisco","Latitude":37.7893215,"Longitude":-122.4013624,"position":{"type":"Point","coordinates":[-122.4013624,37.7893215]}},{"name":"Serious Business","category_code":"games_video","city":"San Francisco","Latitude":37.7893215,"Longitude":-122.4013624,"position":{"type":"Point","coordinates":[-122.4013624,37.7893215]}},{"name":"NorthStar Systems International","category_code":"software","city":"San Francisco","Latitude":37.789551,"Longitude":-122.40036,"position":{"type":"Point","coordinates":[-122.40036,37.789551]}},{"name":"Garaje","category_code":"mexican","city":"San Francisco","Latitude":37.7817918,"Longitude":-122.3960326,"position":{"type":"Point","coordinates":[-122.3960326,37.7817918]}},{"name":"Garaje","category_code":"burger","city":"San Francisco","Latitude":37.7817918,"Longitude":-122.3960326,"position":{"type":"Point","coordinates":[-122.3960326,37.7817918]}},{"name":"Genbook","category_code":"web","city":"San Francisco","Latitude":37.789902,"Longitude":-122.4007791,"position":{"type":"Point","coordinates":[-122.4007791,37.789902]}},{"name":"Lyft","category_code":"software","city":"San Francisco","Latitude":37.7899027,"Longitude":-122.4007846,"position":{"type":"Point","coordinates":[-122.4007846,37.7899027]}},{"name":"Lyft","category_code":"software","city":"San Francisco","Latitude":37.7899027,"Longitude":-122.4007846,"position":{"type":"Point","coordinates":[-122.4007846,37.7899027]}},{"name":"The Ch\u00edefta\u00edn Irish Pub & Restaurant","category_code":"pub","city":"San Francisco","Latitude":37.7814644,"Longitude":-122.4052868,"position":{"type":"Point","coordinates":[-122.4052868,37.7814644]}},{"name":"5th Finger","category_code":"mobile","city":"San Francisco","Latitude":37.7900992,"Longitude":-122.4021988,"position":{"type":"Point","coordinates":[-122.4021988,37.7900992]}},{"name":"Xobni","category_code":"software","city":"San Francisco","Latitude":37.789634,"Longitude":-122.404052,"position":{"type":"Point","coordinates":[-122.404052,37.789634]}},{"name":"PlayFirst","category_code":"games_video","city":"San Francisco","Latitude":37.790346,"Longitude":-122.40185,"position":{"type":"Point","coordinates":[-122.40185,37.790346]}},{"name":"Aruspex","category_code":"software","city":"San Francisco","Latitude":37.790346,"Longitude":-122.40185,"position":{"type":"Point","coordinates":[-122.40185,37.790346]}},{"name":"Flurry","category_code":"advertising","city":"San Francisco","Latitude":37.783046,"Longitude":-122.394067,"position":{"type":"Point","coordinates":[-122.394067,37.783046]}},{"name":"Shattered Reality Interactive","category_code":"games_video","city":"San Francisco","Latitude":37.783046,"Longitude":-122.394067,"position":{"type":"Point","coordinates":[-122.394067,37.783046]}},{"name":"Shattered Reality Interactive","category_code":"games_video","city":"San Francisco","Latitude":37.783046,"Longitude":-122.394067,"position":{"type":"Point","coordinates":[-122.394067,37.783046]}},{"name":"Sportgenic","category_code":"advertising","city":"San Francisco","Latitude":37.790485,"Longitude":-122.40094,"position":{"type":"Point","coordinates":[-122.40094,37.790485]}},{"name":"iSkoot","category_code":"mobile","city":"San Francisco","Latitude":37.780134,"Longitude":-122.396744,"position":{"type":"Point","coordinates":[-122.396744,37.780134]}},{"name":"Starbucks","category_code":"Starbucks","city":"San Francisco","Latitude":37.784124,"Longitude":-122.407653,"position":{"type":"Point","coordinates":[-122.407653,37.784124]}},{"name":"Murphy's Pub","category_code":"pub","city":"San Francisco","Latitude":37.7901832,"Longitude":-122.404076,"position":{"type":"Point","coordinates":[-122.404076,37.7901832]}},{"name":"Burger Bar","category_code":"burger","city":"San Francisco","Latitude":37.78731,"Longitude":-122.4074233,"position":{"type":"Point","coordinates":[-122.4074233,37.78731]}},{"name":"Atom Entertainment","category_code":"web","city":"San Francisco","Latitude":37.790964,"Longitude":-122.401128,"position":{"type":"Point","coordinates":[-122.401128,37.790964]}},{"name":"Eurekster","category_code":"web","city":"","Latitude":37.790992,"Longitude":-122.40188,"position":{"type":"Point","coordinates":[-122.40188,37.790992]}},{"name":"Box Kitchen","category_code":"burger","city":"San Francisco","Latitude":37.781139,"Longitude":-122.406388,"position":{"type":"Point","coordinates":[-122.406388,37.781139]}},{"name":"adBrite","category_code":"advertising","city":"San Francisco","Latitude":37.779026,"Longitude":-122.40184,"position":{"type":"Point","coordinates":[-122.40184,37.779026]}},{"name":"Bizo","category_code":"advertising","city":"San Francisco","Latitude":37.7911186,"Longitude":-122.4011706,"position":{"type":"Point","coordinates":[-122.4011706,37.7911186]}},{"name":"Love + Propaganda","category_code":"nightclub","city":"San Francisco","Latitude":37.7887903,"Longitude":-122.4065981,"position":{"type":"Point","coordinates":[-122.4065981,37.7887903]}},{"name":"The Irish Bank","category_code":"pub","city":"San Francisco","Latitude":37.7903048,"Longitude":-122.4046585,"position":{"type":"Point","coordinates":[-122.4046585,37.7903048]}},{"name":"Heyzap","category_code":"games_video","city":"San Francisco","Latitude":37.7905538,"Longitude":-122.4041485,"position":{"type":"Point","coordinates":[-122.4041485,37.7905538]}},{"name":"SmartTurn","category_code":"advertising","city":"San Francisco","Latitude":37.789801,"Longitude":-122.395327,"position":{"type":"Point","coordinates":[-122.395327,37.789801]}},{"name":"Penguin Computing","category_code":"software","city":"San Francisco","Latitude":37.783171,"Longitude":-122.392901,"position":{"type":"Point","coordinates":[-122.392901,37.783171]}},{"name":"Penguin Computing","category_code":"software","city":"San Francisco","Latitude":37.783171,"Longitude":-122.392901,"position":{"type":"Point","coordinates":[-122.392901,37.783171]}},{"name":"The Grand","category_code":"nightclub","city":"San Francisco","Latitude":37.7790996,"Longitude":-122.3979003,"position":{"type":"Point","coordinates":[-122.3979003,37.7790996]}},{"name":"BrightTALK","category_code":"software","city":"San Francisco","Latitude":37.791128,"Longitude":-122.398126,"position":{"type":"Point","coordinates":[-122.398126,37.791128]}},{"name":"Bomgar","category_code":"software","city":"San Francisco","Latitude":37.791128,"Longitude":-122.398126,"position":{"type":"Point","coordinates":[-122.398126,37.791128]}},{"name":"Tiny Pictures","category_code":"mobile","city":"San Francisco","Latitude":37.781002,"Longitude":-122.406912,"position":{"type":"Point","coordinates":[-122.406912,37.781002]}},{"name":"SeeSaw Networks","category_code":"advertising","city":"San Francisco","Latitude":37.791564,"Longitude":-122.399981,"position":{"type":"Point","coordinates":[-122.399981,37.791564]}},{"name":"Glu Mobile","category_code":"mobile","city":"San Francisco","Latitude":37.7911371,"Longitude":-122.3973539,"position":{"type":"Point","coordinates":[-122.3973539,37.7911371]}},{"name":"Starbucks","category_code":"Starbucks","city":"San Francisco","Latitude":37.789348,"Longitude":-122.406831,"position":{"type":"Point","coordinates":[-122.406831,37.789348]}},{"name":"Wavemaker Software","category_code":"software","city":"San Francisco","Latitude":37.789518,"Longitude":-122.394265,"position":{"type":"Point","coordinates":[-122.394265,37.789518]}},{"name":"Johnny Foley's Irish House","category_code":"pub","city":"San Francisco","Latitude":37.7862527,"Longitude":-122.4088054,"position":{"type":"Point","coordinates":[-122.4088054,37.7862527]}},{"name":"CastTV","category_code":"games_video","city":"San Francisco","Latitude":37.780716,"Longitude":-122.393913,"position":{"type":"Point","coordinates":[-122.393913,37.780716]}},{"name":"Tealeaf","category_code":"advertising","city":"San Francisco","Latitude":37.791242,"Longitude":-122.397133,"position":{"type":"Point","coordinates":[-122.397133,37.791242]}},{"name":"Starbucks","category_code":"Starbucks","city":"San Francisco","Latitude":37.790431,"Longitude":-122.40576,"position":{"type":"Point","coordinates":[-122.40576,37.790431]}},{"name":"Crunchyroll","category_code":"games_video","city":"San Francisco","Latitude":37.781265,"Longitude":-122.393229,"position":{"type":"Point","coordinates":[-122.393229,37.781265]}},{"name":"DanceJam","category_code":"games_video","city":"San Francisco","Latitude":37.781557,"Longitude":-122.407959,"position":{"type":"Point","coordinates":[-122.407959,37.781557]}},{"name":"Gydget","category_code":"web","city":"San Francisco","Latitude":37.791733,"Longitude":-122.398398,"position":{"type":"Point","coordinates":[-122.398398,37.791733]}},{"name":"Starbucks","category_code":"Starbucks","city":"San Francisco","Latitude":37.7861458,"Longitude":-122.4090937,"position":{"type":"Point","coordinates":[-122.4090937,37.7861458]}},{"name":"SpongeFish","category_code":"web","city":"San Francisco","Latitude":37.7800788,"Longitude":-122.3943096,"position":{"type":"Point","coordinates":[-122.3943096,37.7800788]}},{"name":"Super Duper Burgers","category_code":"burger","city":"San Francisco","Latitude":37.7914516,"Longitude":-122.4039819,"position":{"type":"Point","coordinates":[-122.4039819,37.7914516]}},{"name":"Fotomoto","category_code":"ecommerce","city":"San Francisco","Latitude":37.7795014,"Longitude":-122.3948712,"position":{"type":"Point","coordinates":[-122.3948712,37.7795014]}},{"name":"PaperG","category_code":"advertising","city":"San Francisco","Latitude":37.7905948,"Longitude":-122.406111,"position":{"type":"Point","coordinates":[-122.406111,37.7905948]}},{"name":"GoingOn","category_code":"software","city":"San Francisco","Latitude":37.782263,"Longitude":-122.392142,"position":{"type":"Point","coordinates":[-122.392142,37.782263]}},{"name":"Mevio","category_code":"games_video","city":"San Francisco","Latitude":37.782263,"Longitude":-122.392142,"position":{"type":"Point","coordinates":[-122.392142,37.782263]}},{"name":"Double Fusion","category_code":"web","city":"San Francisco","Latitude":37.7887135,"Longitude":-122.3927145,"position":{"type":"Point","coordinates":[-122.3927145,37.7887135]}},{"name":"Yola","category_code":"web","city":"San Francisco","Latitude":37.7911148,"Longitude":-122.3954751,"position":{"type":"Point","coordinates":[-122.3954751,37.7911148]}},{"name":"Monarch","category_code":"nightclub","city":"San Francisco","Latitude":37.7809871,"Longitude":-122.4084623,"position":{"type":"Point","coordinates":[-122.4084623,37.7809871]}},{"name":"Kiptronic","category_code":"advertising","city":"San Francisco","Latitude":37.792394,"Longitude":-122.402349,"position":{"type":"Point","coordinates":[-122.402349,37.792394]}},{"name":"BitTorrent","category_code":"web","city":"San Francisco","Latitude":37.790998,"Longitude":-122.394668,"position":{"type":"Point","coordinates":[-122.394668,37.790998]}},{"name":"Starbucks","category_code":"Starbucks","city":"San Francisco","Latitude":37.789146,"Longitude":-122.408456,"position":{"type":"Point","coordinates":[-122.408456,37.789146]}},{"name":"GuardianEdge Technologies","category_code":"software","city":"San Mateo","Latitude":37.778613,"Longitude":-122.395289,"position":{"type":"Point","coordinates":[-122.395289,37.778613]}},{"name":"Kyte","category_code":"games_video","city":"San Francisco","Latitude":37.788482,"Longitude":-122.409173,"position":{"type":"Point","coordinates":[-122.409173,37.788482]}},{"name":"Starbucks Reserve","category_code":"Starbucks","city":"San Francisco","Latitude":37.791511,"Longitude":-122.395103,"position":{"type":"Point","coordinates":[-122.395103,37.791511]}},{"name":"OMG","category_code":"nightclub","city":"San Francisco","Latitude":37.7817098,"Longitude":-122.4094601,"position":{"type":"Point","coordinates":[-122.4094601,37.7817098]}},{"name":"Splunk","category_code":"software","city":"San Francisco","Latitude":37.78274,"Longitude":-122.390945,"position":{"type":"Point","coordinates":[-122.390945,37.78274]}},{"name":"Citizen Sports","category_code":"games_video","city":"San Francisco","Latitude":37.777513,"Longitude":-122.397044,"position":{"type":"Point","coordinates":[-122.397044,37.777513]}},{"name":"CarbonFlow","category_code":"software","city":"San Francsico","Latitude":37.779097,"Longitude":-122.39365,"position":{"type":"Point","coordinates":[-122.39365,37.779097]}},{"name":"Technorati","category_code":"advertising","city":"San Francisco","Latitude":37.779558,"Longitude":-122.393041,"position":{"type":"Point","coordinates":[-122.393041,37.779558]}},{"name":"1015 Folsom","category_code":"nightclub","city":"San Francisco","Latitude":37.7781268,"Longitude":-122.405787,"position":{"type":"Point","coordinates":[-122.405787,37.7781268]}},{"name":"Pura Club","category_code":"nightclub","city":"San Francisco","Latitude":37.7780959,"Longitude":-122.4057604,"position":{"type":"Point","coordinates":[-122.4057604,37.7780959]}},{"name":"Undertone","category_code":"advertising","city":"San Francisco","Latitude":37.792949,"Longitude":-122.398099,"position":{"type":"Point","coordinates":[-122.398099,37.792949]}},{"name":"The EndUp","category_code":"nightclub","city":"San Francisco","Latitude":37.777312,"Longitude":-122.403745,"position":{"type":"Point","coordinates":[-122.403745,37.777312]}},{"name":"Rapt","category_code":"software","city":"San Francisco","Latitude":37.781689,"Longitude":-122.391061,"position":{"type":"Point","coordinates":[-122.391061,37.781689]}},{"name":"SlideShare","category_code":"web","city":"San Francisco","Latitude":37.776878,"Longitude":-122.400934,"position":{"type":"Point","coordinates":[-122.400934,37.776878]}},{"name":"GotGame","category_code":"games_video","city":"San Francisco","Latitude":37.77772,"Longitude":-122.395785,"position":{"type":"Point","coordinates":[-122.395785,37.77772]}},{"name":"KODA","category_code":"web","city":"San Francisco","Latitude":37.788796,"Longitude":-122.40971,"position":{"type":"Point","coordinates":[-122.40971,37.788796]}},{"name":"Popsons Burgers","category_code":"burger","city":"San Francisco","Latitude":37.7825164,"Longitude":-122.4104056,"position":{"type":"Point","coordinates":[-122.4104056,37.7825164]}},{"name":"Colibri","category_code":"mexican","city":"San Francisco","Latitude":37.7871904,"Longitude":-122.4105478,"position":{"type":"Point","coordinates":[-122.4105478,37.7871904]}},{"name":"Wesabe","category_code":"web","city":"San Francisco","Latitude":37.793148,"Longitude":-122.402567,"position":{"type":"Point","coordinates":[-122.402567,37.793148]}},{"name":"Starbucks","category_code":"Starbucks","city":"San Francisco","Latitude":37.792846,"Longitude":-122.404304,"position":{"type":"Point","coordinates":[-122.404304,37.792846]}},{"name":"SuperSecret","category_code":"web","city":"San Francisco","Latitude":37.7775896,"Longitude":-122.3956019,"position":{"type":"Point","coordinates":[-122.3956019,37.7775896]}},{"name":"Marin Software","category_code":"advertising","city":"San Francisco","Latitude":37.792083,"Longitude":-122.3946404,"position":{"type":"Point","coordinates":[-122.3946404,37.792083]}},{"name":"Blurb","category_code":"ecommerce","city":"San Francisco","Latitude":37.792968,"Longitude":-122.40414,"position":{"type":"Point","coordinates":[-122.40414,37.792968]}},{"name":"ShopSavvy","category_code":"mobile","city":"San Francsico","Latitude":37.7770719,"Longitude":-122.3966273,"position":{"type":"Point","coordinates":[-122.3966273,37.7770719]}},{"name":"Dropbox","category_code":"software","city":"San Francisco","Latitude":37.7909427,"Longitude":-122.4084994,"position":{"type":"Point","coordinates":[-122.4084994,37.7909427]}},{"name":"RichRelevance","category_code":"ecommerce","city":"San Francisco","Latitude":37.7938969,"Longitude":-122.4000965,"position":{"type":"Point","coordinates":[-122.4000965,37.7938969]}},{"name":"Ad Infuse","category_code":"advertising","city":"San Francisco","Latitude":37.793375,"Longitude":-122.404571,"position":{"type":"Point","coordinates":[-122.404571,37.793375]}}]