[{"name":"Wetpaint","category_code":"web","city":"Seattle","lat":47.603122,"long":-122.333253,"position":{"type":"Point","coordinates":[-122.333253,47.603122]}},{"name":"Wetpaint","category_code":"web","city":"New York","lat":40.7237306,"long":-73.9964312,"position":{"type":"Point","coordinates":[-73.9964312,40.7237306]}},{"name":"StumbleUpon","category_code":"web","city":"San Francisco","lat":37.775196,"long":-122.419204,"position":{"type":"Point","coordinates":[-122.419204,37.775196]}},{"name":"Gizmoz","category_code":"web","city":"Menlo Park","lat":37.48413,"long":-122.169472,"position":{"type":"Point","coordinates":[-122.169472,37.48413]}},{"name":"Lala","category_code":"games_video","city":"Palo Alto","lat":37.451151,"long":-122.154369,"position":{"type":"Point","coordinates":[-122.154369,37.451151]}},{"name":"Joost","category_code":"games_video","city":"New York","lat":40.7464969,"long":-74.0094471,"position":{"type":"Point","coordinates":[-74.0094471,40.7464969]}},{"name":"Babelgum","category_code":"games_video","city":"London","lat":53.344104,"long":-6.267494,"position":{"type":"Point","coordinates":[-6.267494,53.344104]}},{"name":"Plaxo","category_code":"web","city":"Sunnyvale","lat":37.387845,"long":-122.055197,"position":{"type":"Point","coordinates":[-122.055197,37.387845]}},{"name":"eBay","category_code":"web","city":"San Jose","lat":37.295005,"long":-121.930035,"position":{"type":"Point","coordinates":[-121.930035,37.295005]}},{"name":"Technorati","category_code":"advertising","city":"San Francisco","lat":37.779558,"long":-122.393041,"position":{"type":"Point","coordinates":[-122.393041,37.779558]}},{"name":"AddThis","category_code":"advertising","city":"New York","lat":40.724604,"long":-73.996876,"position":{"type":"Point","coordinates":[-73.996876,40.724604]}},{"name":"Kyte","category_code":"games_video","city":"San Francisco","lat":37.788482,"long":-122.409173,"position":{"type":"Point","coordinates":[-122.409173,37.788482]}},{"name":"Veoh","category_code":"games_video","city":"San Diego","lat":32.902266,"long":-117.20834,"position":{"type":"Point","coordinates":[-117.20834,32.902266]}},{"name":"Thoof","category_code":"web","city":"Austin","lat":30.268735,"long":-97.745209,"position":{"type":"Point","coordinates":[-97.745209,30.268735]}},{"name":"Info","category_code":"web","city":"Chicago","lat":41.885619,"long":-87.622309,"position":{"type":"Point","coordinates":[-87.622309,41.885619]}},{"name":"Jingle Networks","category_code":"mobile","city":"New York","lat":37.480999,"long":-122.173887,"position":{"type":"Point","coordinates":[-122.173887,37.480999]}},{"name":"JotSpot","category_code":"web","city":"Palo Alto","lat":37.437328,"long":-122.159928,"position":{"type":"Point","coordinates":[-122.159928,37.437328]}},{"name":"Meetup","category_code":"web","city":"New York","lat":40.72604,"long":-73.995722,"position":{"type":"Point","coordinates":[-73.995722,40.72604]}},{"name":"Mercora","category_code":"web","city":"Sunnyvale","lat":37.384239,"long":-122.012475,"position":{"type":"Point","coordinates":[-122.012475,37.384239]}},{"name":"Wesabe","category_code":"web","city":"San Francisco","lat":37.793148,"long":-122.402567,"position":{"type":"Point","coordinates":[-122.402567,37.793148]}},{"name":"Jajah","category_code":"mobile","city":"Mountain View","lat":37.4233896,"long":-122.0899512,"position":{"type":"Point","coordinates":[-122.0899512,37.4233896]}},{"name":"Livestream","category_code":"games_video","city":"New York","lat":40.726155,"long":-73.995625,"position":{"type":"Point","coordinates":[-73.995625,40.726155]}},{"name":"Ustream","category_code":"games_video","city":"San Francisco","lat":37.392936,"long":-122.07948,"position":{"type":"Point","coordinates":[-122.07948,37.392936]}},{"name":"Yahoo!","category_code":"web","city":"Sunnyvale","lat":37.418531,"long":-122.025485,"position":{"type":"Point","coordinates":[-122.025485,37.418531]}},{"name":"Pando Networks","category_code":"games_video","city":"New York","lat":40.722655,"long":-73.99873,"position":{"type":"Point","coordinates":[-73.99873,40.722655]}},{"name":"Topix","category_code":"web","city":"Palo Alto","lat":37.44296,"long":-122.151198,"position":{"type":"Point","coordinates":[-122.151198,37.44296]}},{"name":"Revision3","category_code":"games_video","city":"San Francisco","lat":37.757758,"long":-122.388243,"position":{"type":"Point","coordinates":[-122.388243,37.757758]}},{"name":"CastTV","category_code":"games_video","city":"San Francisco","lat":37.780716,"long":-122.393913,"position":{"type":"Point","coordinates":[-122.393913,37.780716]}},{"name":"iSkoot","category_code":"mobile","city":"Cambridge","lat":42.375392,"long":-71.118487,"position":{"type":"Point","coordinates":[-71.118487,42.375392]}},{"name":"iSkoot","category_code":"mobile","city":"San Francisco","lat":37.780134,"long":-122.396744,"position":{"type":"Point","coordinates":[-122.396744,37.780134]}},{"name":"Funny Or Die","category_code":"games_video","city":"San Mateo","lat":37.421621,"long":-122.137444,"position":{"type":"Point","coordinates":[-122.137444,37.421621]}},{"name":"Zlio","category_code":"ecommerce","city":"Paris","lat":48.862825,"long":2.381836,"position":{"type":"Point","coordinates":[2.381836,48.862825]}},{"name":"Coghead","category_code":"web","city":"Redwood City","lat":37.476479,"long":-122.221717,"position":{"type":"Point","coordinates":[-122.221717,37.476479]}},{"name":"SideStep","category_code":"web","city":"Santa Clara","lat":37.374998,"long":-121.977853,"position":{"type":"Point","coordinates":[-121.977853,37.374998]}},{"name":"RockYou","category_code":"games_video","city":"Redwood City","lat":37.484619,"long":-122.206893,"position":{"type":"Point","coordinates":[-122.206893,37.484619]}},{"name":"Pageflakes","category_code":"web","city":"San Francisco","lat":37.758113,"long":-122.414689,"position":{"type":"Point","coordinates":[-122.414689,37.758113]}},{"name":"Netvibes","category_code":"web","city":"Paris","lat":48.870806,"long":2.34668,"position":{"type":"Point","coordinates":[2.34668,48.870806]}},{"name":"Bebo","category_code":"web","city":"San Francisco","lat":37.782103,"long":-122.401116,"position":{"type":"Point","coordinates":[-122.401116,37.782103]}},{"name":"FeedBurner","category_code":"web","city":"Chicago","lat":41.889474,"long":-87.628912,"position":{"type":"Point","coordinates":[-87.628912,41.889474]}},{"name":"Dogster","category_code":"web","city":"San Francisco","lat":37.762681,"long":-122.400909,"position":{"type":"Point","coordinates":[-122.400909,37.762681]}},{"name":"Zazzle","category_code":"ecommerce","city":"Redwood City","lat":37.5108541,"long":-122.2013557,"position":{"type":"Point","coordinates":[-122.2013557,37.5108541]}},{"name":"TheFind","category_code":"ecommerce","city":"Mountain View","lat":37.391502,"long":-122.073463,"position":{"type":"Point","coordinates":[-122.073463,37.391502]}},{"name":"TVtrip","category_code":"web","city":"Paris","lat":48.856667,"long":2.350987,"position":{"type":"Point","coordinates":[2.350987,48.856667]}},{"name":"adBrite","category_code":"advertising","city":"San Francisco","lat":37.779026,"long":-122.40184,"position":{"type":"Point","coordinates":[-122.40184,37.779026]}},{"name":"Loomia","category_code":"web","city":"San Francisco","lat":37.796396,"long":-122.404869,"position":{"type":"Point","coordinates":[-122.404869,37.796396]}},{"name":"Newsvine","category_code":"web","city":"Seattle","lat":47.618599,"long":-122.358484,"position":{"type":"Point","coordinates":[-122.358484,47.618599]}},{"name":"Meebo","category_code":"web","city":"Mountain View","lat":37.393679,"long":-122.079017,"position":{"type":"Point","coordinates":[-122.079017,37.393679]}},{"name":"Terabitz","category_code":"web","city":"Palo Alto","lat":37.437328,"long":-122.159928,"position":{"type":"Point","coordinates":[-122.159928,37.437328]}},{"name":"iLike","category_code":"games_video","city":"Seattle","lat":47.615313,"long":-122.323408,"position":{"type":"Point","coordinates":[-122.323408,47.615313]}},{"name":"Eventbrite","category_code":"web","city":"San Francisco","lat":37.779507,"long":-122.39071,"position":{"type":"Point","coordinates":[-122.39071,37.779507]}},{"name":"Kaboodle","category_code":"ecommerce","city":"Sunnyvale","lat":37.382162,"long":-122.036301,"position":{"type":"Point","coordinates":[-122.036301,37.382162]}},{"name":"Edgeio","category_code":"ecommerce","city":"Palo Alto","lat":37.443058,"long":-122.161674,"position":{"type":"Point","coordinates":[-122.161674,37.443058]}},{"name":"Zvents","category_code":"web","city":"San Mateo","lat":37.553121,"long":-122.301534,"position":{"type":"Point","coordinates":[-122.301534,37.553121]}},{"name":"Eventful","category_code":"web","city":"San Diego","lat":32.872081,"long":-117.206292,"position":{"type":"Point","coordinates":[-117.206292,32.872081]}},{"name":"Seesmic","category_code":"web","city":"San Francisco","lat":37.775196,"long":-122.419204,"position":{"type":"Point","coordinates":[-122.419204,37.775196]}},{"name":"oDesk","category_code":"web","city":"Redwood City","lat":37.479952,"long":-122.178557,"position":{"type":"Point","coordinates":[-122.178557,37.479952]}},{"name":"GoingOn","category_code":"software","city":"San Francisco","lat":37.782263,"long":-122.392142,"position":{"type":"Point","coordinates":[-122.392142,37.782263]}},{"name":"Flixster","category_code":"web","city":"San Francisco","lat":37.766909,"long":-122.406676,"position":{"type":"Point","coordinates":[-122.406676,37.766909]}},{"name":"spigit","category_code":"software","city":"Reston","lat":38.9590083,"long":-77.3592746,"position":{"type":"Point","coordinates":[-77.3592746,38.9590083]}},{"name":"spigit","category_code":"software","city":"London","lat":51.5170385,"long":-0.1394759,"position":{"type":"Point","coordinates":[-0.1394759,51.5170385]}},{"name":"Bazaarvoice","category_code":"software","city":"Austin","lat":30.407545,"long":-97.717667,"position":{"type":"Point","coordinates":[-97.717667,30.407545]}},{"name":"ScanScout","category_code":"advertising","city":"Boston","lat":42.340889,"long":-71.051931,"position":{"type":"Point","coordinates":[-71.051931,42.340889]}},{"name":"ScanScout","category_code":"advertising","city":"New York","lat":40.739833,"long":-73.993158,"position":{"type":"Point","coordinates":[-73.993158,40.739833]}},{"name":"ScanScout","category_code":"advertising","city":"Los Angeles","lat":34.050887,"long":-118.459995,"position":{"type":"Point","coordinates":[-118.459995,34.050887]}},{"name":"hi5","category_code":"games_video","city":"San Francisco","lat":37.788668,"long":-122.400558,"position":{"type":"Point","coordinates":[-122.400558,37.788668]}},{"name":"Jaxtr","category_code":"mobile","city":"Menlo Park","lat":37.451026,"long":-122.18676,"position":{"type":"Point","coordinates":[-122.18676,37.451026]}},{"name":"Going","category_code":"web","city":"Boston","lat":42.355672,"long":-71.060864,"position":{"type":"Point","coordinates":[-71.060864,42.355672]}},{"name":"Respectance","category_code":"web","city":"San Mateo","lat":37.55909,"long":-122.321836,"position":{"type":"Point","coordinates":[-122.321836,37.55909]}},{"name":"Curse","category_code":"games_video","city":"San Francisco","lat":37.787092,"long":-122.399972,"position":{"type":"Point","coordinates":[-122.399972,37.787092]}},{"name":"PeerMe","category_code":"games_video","city":"Mountain View","lat":37.419819,"long":-122.090188,"position":{"type":"Point","coordinates":[-122.090188,37.419819]}},{"name":"Kiptronic","category_code":"advertising","city":"San Francisco","lat":37.792394,"long":-122.402349,"position":{"type":"Point","coordinates":[-122.402349,37.792394]}},{"name":"Vuze","category_code":"games_video","city":"San Mateo","lat":37.4858654,"long":-122.2262606,"position":{"type":"Point","coordinates":[-122.2262606,37.4858654]}},{"name":"Phonezoo","category_code":"web","city":"Sunnyvale","lat":37.386376,"long":-121.991471,"position":{"type":"Point","coordinates":[-121.991471,37.386376]}},{"name":"Wishpot","category_code":"ecommerce","city":"Seattle","lat":47.620716,"long":-122.347533,"position":{"type":"Point","coordinates":[-122.347533,47.620716]}},{"name":"PodTech","category_code":"games_video","city":"Palo Alto","lat":37.408256,"long":-122.154176,"position":{"type":"Point","coordinates":[-122.154176,37.408256]}},{"name":"PayScale","category_code":"software","city":"Seattle","lat":47.5999337,"long":-122.3276962,"position":{"type":"Point","coordinates":[-122.3276962,47.5999337]}},{"name":"Lotame","category_code":"advertising","city":"New York","lat":40.753631,"long":-73.995487,"position":{"type":"Point","coordinates":[-73.995487,40.753631]}},{"name":"Lotame","category_code":"advertising","city":"Cambridge","lat":42.359146,"long":-71.056604,"position":{"type":"Point","coordinates":[-71.056604,42.359146]}},{"name":"BuddyTV","category_code":"games_video","city":"Seattle","lat":47.61968,"long":-122.356756,"position":{"type":"Point","coordinates":[-122.356756,47.61968]}},{"name":"Retrevo","category_code":"web","city":"Sunnyvale","lat":37.368594,"long":-122.034021,"position":{"type":"Point","coordinates":[-122.034021,37.368594]}},{"name":"Tangler","category_code":"web","city":"Mountain View","lat":37.386665,"long":-122.084171,"position":{"type":"Point","coordinates":[-122.084171,37.386665]}},{"name":"obopay","category_code":"mobile","city":"Redwood City","lat":37.524729,"long":-122.258037,"position":{"type":"Point","coordinates":[-122.258037,37.524729]}},{"name":"TalkPlus","category_code":"web","city":"San Mateo","lat":37.553743,"long":-122.300246,"position":{"type":"Point","coordinates":[-122.300246,37.553743]}},{"name":"Amazon","category_code":"ecommerce","city":"Seattle","lat":47.5923,"long":-122.317295,"position":{"type":"Point","coordinates":[-122.317295,47.5923]}},{"name":"PermissionTV","category_code":"games_video","city":"Waltham","lat":42.417268,"long":-71.258466,"position":{"type":"Point","coordinates":[-71.258466,42.417268]}},{"name":"IMVU","category_code":"web","city":"Mountain View","lat":37.3927975,"long":-122.0727749,"position":{"type":"Point","coordinates":[-122.0727749,37.3927975]}},{"name":"AOL","category_code":"web","city":"New York","lat":40.7311317,"long":-73.9919311,"position":{"type":"Point","coordinates":[-73.9919311,40.7311317]}},{"name":"Viagogo","category_code":"ecommerce","city":"San Francisco","lat":51.500152,"long":-0.126236,"position":{"type":"Point","coordinates":[-0.126236,51.500152]}},{"name":"GreatCall","category_code":"mobile","city":"San Diego","lat":32.964294,"long":-117.265191,"position":{"type":"Point","coordinates":[-117.265191,32.964294]}},{"name":"Metacafe","category_code":"games_video","city":"San Francisco","lat":37.437328,"long":-122.159928,"position":{"type":"Point","coordinates":[-122.159928,37.437328]}},{"name":"Flock","category_code":"web","city":"Menlo Park","lat":37.491356,"long":-122.228843,"position":{"type":"Point","coordinates":[-122.228843,37.491356]}},{"name":"Revver","category_code":"games_video","city":"Los Angeles","lat":34.052187,"long":-118.243425,"position":{"type":"Point","coordinates":[-118.243425,34.052187]}},{"name":"Kontera","category_code":"advertising","city":"San Francisco","lat":37.767575,"long":-122.411157,"position":{"type":"Point","coordinates":[-122.411157,37.767575]}},{"name":"Dropbox","category_code":"software","city":"San Francisco","lat":37.7909427,"long":-122.4084994,"position":{"type":"Point","coordinates":[-122.4084994,37.7909427]}},{"name":"Yola","category_code":"web","city":"San Francisco","lat":37.7911148,"long":-122.3954751,"position":{"type":"Point","coordinates":[-122.3954751,37.7911148]}},{"name":"Kongregate","category_code":"games_video","city":"San Francisco","lat":37.786942,"long":-122.401245,"position":{"type":"Point","coordinates":[-122.401245,37.786942]}},{"name":"DanceJam","category_code":"games_video","city":"San Francisco","lat":37.781557,"long":-122.407959,"position":{"type":"Point","coordinates":[-122.407959,37.781557]}},{"name":"Inneractive","category_code":"advertising","city":"San Mateo","lat":37.5646055,"long":-122.3229235,"position":{"type":"Point","coordinates":[-122.3229235,37.5646055]}},{"name":"BitTorrent","category_code":"web","city":"San Francisco","lat":37.790998,"long":-122.394668,"position":{"type":"Point","coordinates":[-122.394668,37.790998]}},{"name":"Filtrbox","category_code":"web","city":"Palo Alto","lat":40.010492,"long":-105.276843,"position":{"type":"Point","coordinates":[-105.276843,40.010492]}},{"name":"Veotag","category_code":"web","city":"New York","lat":40.752957,"long":-73.98546,"position":{"type":"Point","coordinates":[-73.98546,40.752957]}},{"name":"Fathom Online","category_code":"advertising","city":"San Francisco","lat":37.775196,"long":-122.419204,"position":{"type":"Point","coordinates":[-122.419204,37.775196]}},{"name":"BlueLithium","category_code":"advertising","city":"San Jose","lat":37.32052,"long":-121.948399,"position":{"type":"Point","coordinates":[-121.948399,37.32052]}},{"name":"Doostang","category_code":"web","city":"Palo Alto","lat":37.427235,"long":-122.145783,"position":{"type":"Point","coordinates":[-122.145783,37.427235]}},{"name":"DotBlu","category_code":"web","city":"San Francisco","lat":37.09024,"long":-95.712891,"position":{"type":"Point","coordinates":[-95.712891,37.09024]}},{"name":"Vlingo","category_code":"mobile","city":"Cambridge","lat":42.372912,"long":-71.118999,"position":{"type":"Point","coordinates":[-71.118999,42.372912]}},{"name":"Docstoc","category_code":"web","city":"Santa Monica","lat":34.018275,"long":-118.495025,"position":{"type":"Point","coordinates":[-118.495025,34.018275]}},{"name":"Mevio","category_code":"games_video","city":"San Francisco","lat":37.782263,"long":-122.392142,"position":{"type":"Point","coordinates":[-122.392142,37.782263]}},{"name":"Shock Treatment Management","category_code":"web","city":"Seattle","lat":47.610332,"long":-122.339859,"position":{"type":"Point","coordinates":[-122.339859,47.610332]}},{"name":"Pluck","category_code":"web","city":"Austin","lat":30.268735,"long":-97.745209,"position":{"type":"Point","coordinates":[-97.745209,30.268735]}},{"name":"BitPass","category_code":"web","city":"Mountain View","lat":37.40047,"long":-122.072981,"position":{"type":"Point","coordinates":[-122.072981,37.40047]}},{"name":"Kelkoo","category_code":"ecommerce","city":"London","lat":37.09024,"long":-95.712891,"position":{"type":"Point","coordinates":[-95.712891,37.09024]}},{"name":"Atom Entertainment","category_code":"web","city":"San Francisco","lat":37.790964,"long":-122.401128,"position":{"type":"Point","coordinates":[-122.401128,37.790964]}},{"name":"FilmLoop","category_code":"web","city":"Menlo Park","lat":37.48413,"long":-122.169472,"position":{"type":"Point","coordinates":[-122.169472,37.48413]}},{"name":"sezmi","category_code":"games_video","city":"Santa Monica","lat":34.017373,"long":-118.453218,"position":{"type":"Point","coordinates":[-118.453218,34.017373]}},{"name":"Heavy","category_code":"web","city":"New York","lat":40.753385,"long":-73.98962,"position":{"type":"Point","coordinates":[-73.98962,40.753385]}},{"name":"eHarmony","category_code":"web","city":"Santa Monica","lat":34.145946,"long":-118.132351,"position":{"type":"Point","coordinates":[-118.132351,34.145946]}},{"name":"Greystripe","category_code":"advertising","city":"San Francisco","lat":37.710677,"long":-122.39323,"position":{"type":"Point","coordinates":[-122.39323,37.710677]}},{"name":"ReachLocal","category_code":"advertising","city":"London","lat":41.53155,"long":-72.188584,"position":{"type":"Point","coordinates":[-72.188584,41.53155]}},{"name":"SpiralFrog","category_code":"games_video","city":"New York","lat":37.09024,"long":-95.712891,"position":{"type":"Point","coordinates":[-95.712891,37.09024]}},{"name":"OpenTable","category_code":"web","city":"San Francisco","lat":37.785647,"long":-122.405265,"position":{"type":"Point","coordinates":[-122.405265,37.785647]}},{"name":"LocaModa","category_code":"advertising","city":"Cambridge","lat":42.358822,"long":-71.104329,"position":{"type":"Point","coordinates":[-71.104329,42.358822]}},{"name":"MocoSpace","category_code":"games_video","city":"Boston","lat":42.350274,"long":-71.058768,"position":{"type":"Point","coordinates":[-71.058768,42.350274]}},{"name":"Adknowledge","category_code":"advertising","city":"New York","lat":40.748901,"long":-73.992463,"position":{"type":"Point","coordinates":[-73.992463,40.748901]}},{"name":"Adknowledge","category_code":"advertising","city":"San Francisco","lat":37.78866,"long":-122.401406,"position":{"type":"Point","coordinates":[-122.401406,37.78866]}},{"name":"Adknowledge","category_code":"advertising","city":"Paris","lat":48.8506065,"long":2.3797825,"position":{"type":"Point","coordinates":[2.3797825,48.8506065]}},{"name":"Quattro Wireless","category_code":"advertising","city":"Waltham","lat":42.3729,"long":-71.248472,"position":{"type":"Point","coordinates":[-71.248472,42.3729]}},{"name":"BBE","category_code":"advertising","city":"New York","lat":40.7445343,"long":-73.9874008,"position":{"type":"Point","coordinates":[-73.9874008,40.7445343]}},{"name":"Tacoda","category_code":"web","city":"New York","lat":40.757929,"long":-73.985506,"position":{"type":"Point","coordinates":[-73.985506,40.757929]}},{"name":"Xfire","category_code":"games_video","city":"Santa Monica","lat":34.0184659,"long":-118.49863,"position":{"type":"Point","coordinates":[-118.49863,34.0184659]}},{"name":"Mixercast","category_code":"web","city":"San Mateo","lat":37.553743,"long":-122.300246,"position":{"type":"Point","coordinates":[-122.300246,37.553743]}},{"name":"SnapTell","category_code":"software","city":"Palo Alto","lat":37.433414,"long":-122.128772,"position":{"type":"Point","coordinates":[-122.128772,37.433414]}},{"name":"Wonga","category_code":"web","city":"London","lat":51.5192042,"long":-0.1626103,"position":{"type":"Point","coordinates":[-0.1626103,51.5192042]}},{"name":"Tutor","category_code":"web","city":"New York","lat":40.707921,"long":-74.004792,"position":{"type":"Point","coordinates":[-74.004792,40.707921]}},{"name":"EyeJot","category_code":"web","city":"Seattle","lat":47.5999337,"long":-122.3276962,"position":{"type":"Point","coordinates":[-122.3276962,47.5999337]}},{"name":"OMGPOP","category_code":"games_video","city":"New York","lat":40.723384,"long":-74.001704,"position":{"type":"Point","coordinates":[-74.001704,40.723384]}},{"name":"SayNow","category_code":"mobile","city":"Palo Alto","lat":37.42746,"long":-122.143915,"position":{"type":"Point","coordinates":[-122.143915,37.42746]}},{"name":"Crunchyroll","category_code":"games_video","city":"San Francisco","lat":37.781265,"long":-122.393229,"position":{"type":"Point","coordinates":[-122.393229,37.781265]}},{"name":"PixSense","category_code":"mobile","city":"Santa Clara","lat":37.387114,"long":-121.973228,"position":{"type":"Point","coordinates":[-121.973228,37.387114]}},{"name":"Behance","category_code":"web","city":"New York","lat":40.74406,"long":-74.004592,"position":{"type":"Point","coordinates":[-74.004592,40.74406]}},{"name":"OurStory","category_code":"web","city":"Mountain View","lat":37.40047,"long":-122.072981,"position":{"type":"Point","coordinates":[-122.072981,37.40047]}},{"name":"hulu","category_code":"games_video","city":"Los Angeles","lat":34.031276,"long":-118.456806,"position":{"type":"Point","coordinates":[-118.456806,34.031276]}},{"name":"AdMob","category_code":"advertising","city":"Mountain View","lat":37.563585,"long":-122.324621,"position":{"type":"Point","coordinates":[-122.324621,37.563585]}},{"name":"Attributor","category_code":"software","city":"San Mateo","lat":37.453687,"long":-122.228595,"position":{"type":"Point","coordinates":[-122.228595,37.453687]}},{"name":"BeFunky","category_code":"photo_video","city":"San Francisco","lat":37.7749295,"long":-122.4194155,"position":{"type":"Point","coordinates":[-122.4194155,37.7749295]}},{"name":"PubMatic","category_code":"advertising","city":"Redwood City","lat":37.446668,"long":-122.156579,"position":{"type":"Point","coordinates":[-122.156579,37.446668]}},{"name":"FlowPlay","category_code":"games_video","city":"Seattle","lat":47.6015315,"long":-122.335943,"position":{"type":"Point","coordinates":[-122.335943,47.6015315]}},{"name":"Social Project","category_code":"web","city":"Santa Monica","lat":34.01052,"long":-118.495981,"position":{"type":"Point","coordinates":[-118.495981,34.01052]}},{"name":"RotoHog","category_code":"games_video","city":"Los Angeles","lat":33.959799,"long":-118.343938,"position":{"type":"Point","coordinates":[-118.343938,33.959799]}},{"name":"Viewpoints","category_code":"web","city":"Chicago","lat":41.890376,"long":-87.63406,"position":{"type":"Point","coordinates":[-87.63406,41.890376]}},{"name":"OneRiot","category_code":"advertising","city":"Boulder","lat":40.01621,"long":-105.28131,"position":{"type":"Point","coordinates":[-105.28131,40.01621]}},{"name":"UpDown","category_code":"web","city":"Cambridge","lat":42.375392,"long":-71.118487,"position":{"type":"Point","coordinates":[-71.118487,42.375392]}},{"name":"MuseStorm","category_code":"web","city":"Sunnyvale","lat":37.368594,"long":-122.034021,"position":{"type":"Point","coordinates":[-122.034021,37.368594]}},{"name":"Clickable","category_code":"advertising","city":"New York","lat":40.7413559,"long":-73.9912208,"position":{"type":"Point","coordinates":[-73.9912208,40.7413559]}},{"name":"GamerDNA","category_code":"web","city":"Cambridge","lat":42.375392,"long":-71.118487,"position":{"type":"Point","coordinates":[-71.118487,42.375392]}},{"name":"SpeedDate","category_code":"web","city":"San Mateo","lat":37.557637,"long":-122.285714,"position":{"type":"Point","coordinates":[-122.285714,37.557637]}},{"name":"mEgo","category_code":"web","city":"Los Angeles","lat":34.064491,"long":-118.42749,"position":{"type":"Point","coordinates":[-118.42749,34.064491]}},{"name":"Spoke","category_code":"software","city":"San Mateo","lat":37.559287,"long":-122.302262,"position":{"type":"Point","coordinates":[-122.302262,37.559287]}},{"name":"Fixya","category_code":"web","city":"San Mateo","lat":37.566879,"long":-122.323895,"position":{"type":"Point","coordinates":[-122.323895,37.566879]}},{"name":"Xobni","category_code":"software","city":"San Francisco","lat":37.789634,"long":-122.404052,"position":{"type":"Point","coordinates":[-122.404052,37.789634]}},{"name":"Mozilla","category_code":"web","city":"Mountain View","lat":37.418491,"long":-122.08744,"position":{"type":"Point","coordinates":[-122.08744,37.418491]}},{"name":"Worklight","category_code":"mobile","city":"New York","lat":40.756799,"long":-73.976348,"position":{"type":"Point","coordinates":[-73.976348,40.756799]}},{"name":"Mimeo","category_code":"web","city":"New York","lat":40.745216,"long":-73.982807,"position":{"type":"Point","coordinates":[-73.982807,40.745216]}},{"name":"3Jam","category_code":"mobile","city":"San Francisco","lat":37.765125,"long":-122.4044034,"position":{"type":"Point","coordinates":[-122.4044034,37.765125]}},{"name":"PlaySpan","category_code":"games_video","city":"Santa Clara","lat":37.396312,"long":-121.961396,"position":{"type":"Point","coordinates":[-121.961396,37.396312]}},{"name":"DocuSign","category_code":"software","city":"Seattle","lat":47.603015,"long":-122.335668,"position":{"type":"Point","coordinates":[-122.335668,47.603015]}},{"name":"Graspr","category_code":"games_video","city":"Mountain View","lat":37.384919,"long":-122.053175,"position":{"type":"Point","coordinates":[-122.053175,37.384919]}},{"name":"Zannel","category_code":"web","city":"San Francisco","lat":37.775196,"long":-122.419204,"position":{"type":"Point","coordinates":[-122.419204,37.775196]}},{"name":"Wikinvest","category_code":"web","city":"San Francisco","lat":37.775196,"long":-122.419204,"position":{"type":"Point","coordinates":[-122.419204,37.775196]}},{"name":"FriendFeed","category_code":"web","city":"Mountain View","lat":37.39248,"long":-122.072612,"position":{"type":"Point","coordinates":[-122.072612,37.39248]}},{"name":"Rupture","category_code":"games_video","city":"San Francisco","lat":37.783898,"long":-122.395234,"position":{"type":"Point","coordinates":[-122.395234,37.783898]}},{"name":"Gazelle","category_code":"ecommerce","city":"Boston","lat":42.354022,"long":-71.140762,"position":{"type":"Point","coordinates":[-71.140762,42.354022]}},{"name":"Whiskey Media","category_code":"web","city":"San Francisco","lat":37.856331,"long":-122.495222,"position":{"type":"Point","coordinates":[-122.495222,37.856331]}},{"name":"RayV","category_code":"games_video","city":"New York","lat":40.781159,"long":-73.978332,"position":{"type":"Point","coordinates":[-73.978332,40.781159]}},{"name":"Uptake","category_code":"web","city":"Palo Alto","lat":37.443058,"long":-122.161674,"position":{"type":"Point","coordinates":[-122.161674,37.443058]}},{"name":"Polyvore","category_code":"web","city":"Mountain View","lat":37.386175,"long":-122.083487,"position":{"type":"Point","coordinates":[-122.083487,37.386175]}},{"name":"YuMe","category_code":"advertising","city":"Redwood City","lat":37.476479,"long":-122.221717,"position":{"type":"Point","coordinates":[-122.221717,37.476479]}},{"name":"AdReady","category_code":"advertising","city":"Seattle","lat":47.649027,"long":-122.346299,"position":{"type":"Point","coordinates":[-122.346299,47.649027]}},{"name":"Treemo Labs","category_code":"mobile","city":"Seattle","lat":47.620716,"long":-122.347533,"position":{"type":"Point","coordinates":[-122.347533,47.620716]}},{"name":"Blurb","category_code":"ecommerce","city":"San Francisco","lat":37.792968,"long":-122.40414,"position":{"type":"Point","coordinates":[-122.40414,37.792968]}},{"name":"Automattic","category_code":"web","city":"San Francisco","lat":37.744274,"long":-122.421344,"position":{"type":"Point","coordinates":[-122.421344,37.744274]}},{"name":"Tabblo","category_code":"web","city":"Boston","lat":42.35888,"long":-71.05682,"position":{"type":"Point","coordinates":[-71.05682,42.35888]}},{"name":"Dash","category_code":"mobile","city":"Sunnyvale","lat":37.401495,"long":-122.031855,"position":{"type":"Point","coordinates":[-122.031855,37.401495]}},{"name":"Veodia","category_code":"games_video","city":"San Mateo","lat":37.553743,"long":-122.300246,"position":{"type":"Point","coordinates":[-122.300246,37.553743]}},{"name":"Radar Networks","category_code":"advertising","city":"San Francisco","lat":37.7753,"long":-122.398058,"position":{"type":"Point","coordinates":[-122.398058,37.7753]}},{"name":"Tumblr","category_code":"web","city":"New York","lat":40.743808,"long":-73.983626,"position":{"type":"Point","coordinates":[-73.983626,40.743808]}},{"name":"EchoSign","category_code":"web","city":"Palo Alto","lat":37.445326,"long":-122.160671,"position":{"type":"Point","coordinates":[-122.160671,37.445326]}},{"name":"Predictify","category_code":"advertising","city":"Redwood City","lat":37.486571,"long":-122.229161,"position":{"type":"Point","coordinates":[-122.229161,37.486571]}},{"name":"TrialPay","category_code":"advertising","city":"Mountain View","lat":37.388095,"long":-122.08276,"position":{"type":"Point","coordinates":[-122.08276,37.388095]}},{"name":"eXelate","category_code":"advertising","city":"New York","lat":40.741266,"long":-73.990753,"position":{"type":"Point","coordinates":[-73.990753,40.741266]}},{"name":"eXelate","category_code":"advertising","city":"San Francisco","lat":37.787249,"long":-122.3990501,"position":{"type":"Point","coordinates":[-122.3990501,37.787249]}},{"name":"eXelate","category_code":"advertising","city":"Chicago","lat":41.8831959,"long":-87.6517774,"position":{"type":"Point","coordinates":[-87.6517774,41.8831959]}},{"name":"eXelate","category_code":"advertising","city":"Paris","lat":48.8743443,"long":2.3226888,"position":{"type":"Point","coordinates":[2.3226888,48.8743443]}},{"name":"eXelate","category_code":"advertising","city":"London","lat":51.5150129,"long":-0.1326786,"position":{"type":"Point","coordinates":[-0.1326786,51.5150129]}},{"name":"Gydget","category_code":"web","city":"San Francisco","lat":37.791733,"long":-122.398398,"position":{"type":"Point","coordinates":[-122.398398,37.791733]}},{"name":"OnLive","category_code":"games_video","city":"Palo Alto","lat":37.09024,"long":-95.712891,"position":{"type":"Point","coordinates":[-95.712891,37.09024]}},{"name":"Skinkers","category_code":"software","city":"London","lat":51.604922,"long":0.239866,"position":{"type":"Point","coordinates":[0.239866,51.604922]}},{"name":"PicksPal","category_code":"games_video","city":"Mountain View","lat":37.40047,"long":-122.072981,"position":{"type":"Point","coordinates":[-122.072981,37.40047]}},{"name":"Baynote","category_code":"software","city":"San Jose","lat":37.332271,"long":-122.006539,"position":{"type":"Point","coordinates":[-122.006539,37.332271]}},{"name":"Songbird","category_code":"mobile","city":"San Francisco","lat":37.787126,"long":-122.39783,"position":{"type":"Point","coordinates":[-122.39783,37.787126]}},{"name":"Quigo","category_code":"advertising","city":"New York","lat":40.907974,"long":-73.84179,"position":{"type":"Point","coordinates":[-73.84179,40.907974]}},{"name":"Disqus","category_code":"web","city":"San Francisco","lat":37.786906,"long":-122.397672,"position":{"type":"Point","coordinates":[-122.397672,37.786906]}},{"name":"Pelago","category_code":"mobile","city":"Seattle","lat":47.607065,"long":-122.335373,"position":{"type":"Point","coordinates":[-122.335373,47.607065]}},{"name":"Peer39","category_code":"advertising","city":"New York","lat":40.755446,"long":-73.980246,"position":{"type":"Point","coordinates":[-73.980246,40.755446]}},{"name":"Shangby","category_code":"ecommerce","city":"Austin","lat":30.288653,"long":-97.822884,"position":{"type":"Point","coordinates":[-97.822884,30.288653]}},{"name":"Akimbo","category_code":"games_video","city":"San Mateo","lat":37.548482,"long":-122.320534,"position":{"type":"Point","coordinates":[-122.320534,37.548482]}},{"name":"Vringo","category_code":"software","city":"New York","lat":40.7550005,"long":-73.9717364,"position":{"type":"Point","coordinates":[-73.9717364,40.7550005]}},{"name":"Plazes","category_code":"web","city":"Berlin","lat":52.523402,"long":13.398694,"position":{"type":"Point","coordinates":[13.398694,52.523402]}},{"name":"Faves","category_code":"web","city":"Seattle","lat":47.603327,"long":-122.334983,"position":{"type":"Point","coordinates":[-122.334983,47.603327]}},{"name":"BrightRoll","category_code":"advertising","city":"San Francisco","lat":37.794643,"long":-122.401144,"position":{"type":"Point","coordinates":[-122.401144,37.794643]}},{"name":"Minekey","category_code":"web","city":"Sunnyvale","lat":37.384239,"long":-122.012475,"position":{"type":"Point","coordinates":[-122.012475,37.384239]}},{"name":"Doppelganger","category_code":"web","city":"San Francisco","lat":37.762162,"long":-122.413912,"position":{"type":"Point","coordinates":[-122.413912,37.762162]}},{"name":"Zmags","category_code":"software","city":"London","lat":51.5111369,"long":-0.1247662,"position":{"type":"Point","coordinates":[-0.1247662,51.5111369]}},{"name":"StreetFire","category_code":"web","city":"Los Angeles","lat":33.982431,"long":-118.426707,"position":{"type":"Point","coordinates":[-118.426707,33.982431]}},{"name":"Turn","category_code":"advertising","city":"Redwood City","lat":37.512253,"long":-122.201099,"position":{"type":"Point","coordinates":[-122.201099,37.512253]}},{"name":"Loopt","category_code":"mobile","city":"Mountain View","lat":37.384717,"long":-122.081625,"position":{"type":"Point","coordinates":[-122.081625,37.384717]}},{"name":"Podaddies","category_code":"advertising","city":"San Francisco","lat":37.7726402,"long":-122.4099154,"position":{"type":"Point","coordinates":[-122.4099154,37.7726402]}},{"name":"MyBuys","category_code":"advertising","city":"San Mateo","lat":37.530893,"long":-122.245087,"position":{"type":"Point","coordinates":[-122.245087,37.530893]}},{"name":"Adteractive","category_code":"advertising","city":"San Francisco","lat":37.78554,"long":-122.396689,"position":{"type":"Point","coordinates":[-122.396689,37.78554]}},{"name":"Yieldex","category_code":"advertising","city":"New York","lat":37.636288,"long":-122.42689,"position":{"type":"Point","coordinates":[-122.42689,37.636288]}},{"name":"BlackArrow","category_code":"advertising","city":"San Jose","lat":37.549475,"long":-122.316982,"position":{"type":"Point","coordinates":[-122.316982,37.549475]}},{"name":"Peerflix","category_code":"advertising","city":"Palo Alto","lat":37.446407,"long":-122.159712,"position":{"type":"Point","coordinates":[-122.159712,37.446407]}},{"name":"Vobile","category_code":"web","city":"Santa Clara","lat":37.399208,"long":-121.97895,"position":{"type":"Point","coordinates":[-121.97895,37.399208]}},{"name":"Verimatrix","category_code":"software","city":"San Diego","lat":32.903248,"long":-117.175733,"position":{"type":"Point","coordinates":[-117.175733,32.903248]}},{"name":"Billeo","category_code":"ecommerce","city":"Santa Clara","lat":37.385216,"long":-121.972128,"position":{"type":"Point","coordinates":[-121.972128,37.385216]}},{"name":"Billeo","category_code":"ecommerce","city":"Santa Clara","lat":37.4069445,"long":-121.9797628,"position":{"type":"Point","coordinates":[-121.9797628,37.4069445]}},{"name":"RealSelf","category_code":"web","city":"Seattle","lat":47.620716,"long":-122.347533,"position":{"type":"Point","coordinates":[-122.347533,47.620716]}},{"name":"GameLayers","category_code":"web","city":"San Francisco","lat":37.803847,"long":-122.402468,"position":{"type":"Point","coordinates":[-122.402468,37.803847]}},{"name":"Zoji","category_code":"web","city":"Seattle","lat":47.620716,"long":-122.347533,"position":{"type":"Point","coordinates":[-122.347533,47.620716]}},{"name":"WEbook","category_code":"web","city":"New York","lat":38.984172,"long":-77.095965,"position":{"type":"Point","coordinates":[-77.095965,38.984172]}},{"name":"Splunk","category_code":"software","city":"San Francisco","lat":37.78274,"long":-122.390945,"position":{"type":"Point","coordinates":[-122.390945,37.78274]}},{"name":"xkoto","category_code":"software","city":"Waltham","lat":42.405685,"long":-71.255857,"position":{"type":"Point","coordinates":[-71.255857,42.405685]}},{"name":"Qwaq","category_code":"web","city":"Palo Alto","lat":37.425591,"long":-122.145416,"position":{"type":"Point","coordinates":[-122.145416,37.425591]}},{"name":"Yodle","category_code":"advertising","city":"New York","lat":40.742459,"long":-73.9918126,"position":{"type":"Point","coordinates":[-73.9918126,40.742459]}},{"name":"Yodle","category_code":"advertising","city":"Austin","lat":30.378658,"long":-97.731249,"position":{"type":"Point","coordinates":[-97.731249,30.378658]}},{"name":"betNOW","category_code":"web","city":"London","lat":51.511599,"long":-0.126389,"position":{"type":"Point","coordinates":[-0.126389,51.511599]}},{"name":"Jott","category_code":"web","city":"Seattle","lat":47.6139472,"long":-122.327807,"position":{"type":"Point","coordinates":[-122.327807,47.6139472]}},{"name":"Motionbox","category_code":"games_video","city":"New York","lat":40.606061,"long":-73.822331,"position":{"type":"Point","coordinates":[-73.822331,40.606061]}},{"name":"Kewego","category_code":"games_video","city":"Paris","lat":46.227638,"long":2.213749,"position":{"type":"Point","coordinates":[2.213749,46.227638]}},{"name":"HubSpot","category_code":"software","city":"Cambridge","lat":42.375392,"long":-71.118487,"position":{"type":"Point","coordinates":[-71.118487,42.375392]}},{"name":"Dapper","category_code":"advertising","city":"San Francisco","lat":37.7766184,"long":-122.3938931,"position":{"type":"Point","coordinates":[-122.3938931,37.7766184]}},{"name":"Twenga","category_code":"ecommerce","city":"Paris","lat":48.856667,"long":2.350987,"position":{"type":"Point","coordinates":[2.350987,48.856667]}},{"name":"Masala","category_code":"web","city":"San Francisco","lat":37.09024,"long":-95.712891,"position":{"type":"Point","coordinates":[-95.712891,37.09024]}},{"name":"FastBooking","category_code":"web","city":"Paris","lat":37.09024,"long":-95.712891,"position":{"type":"Point","coordinates":[-95.712891,37.09024]}},{"name":"BeliefNet","category_code":"web","city":"New York","lat":40.740231,"long":-73.985433,"position":{"type":"Point","coordinates":[-73.985433,40.740231]}},{"name":"Bahu","category_code":"web","city":"Paris","lat":48.882434,"long":2.297035,"position":{"type":"Point","coordinates":[2.297035,48.882434]}},{"name":"Kosmix","category_code":"web","city":"Mountain View","lat":37.3867729,"long":-122.0752224,"position":{"type":"Point","coordinates":[-122.0752224,37.3867729]}},{"name":"Goodreads","category_code":"web","city":"Santa Monica","lat":34.01052,"long":-118.495981,"position":{"type":"Point","coordinates":[-118.495981,34.01052]}},{"name":"Ribbit","category_code":"mobile","city":"Mountain View","lat":37.386665,"long":-122.084171,"position":{"type":"Point","coordinates":[-122.084171,37.386665]}},{"name":"HubPages","category_code":"web","city":"San Francisco","lat":37.7876952,"long":-122.3991505,"position":{"type":"Point","coordinates":[-122.3991505,37.7876952]}},{"name":"ideeli","category_code":"ecommerce","city":"New York","lat":40.755978,"long":-73.990396,"position":{"type":"Point","coordinates":[-73.990396,40.755978]}},{"name":"WeShow","category_code":"games_video","city":"New York","lat":40.752516,"long":-73.973072,"position":{"type":"Point","coordinates":[-73.973072,40.752516]}},{"name":"Qik","category_code":"mobile","city":"Redwood City","lat":37.486368,"long":-122.230116,"position":{"type":"Point","coordinates":[-122.230116,37.486368]}},{"name":"PlayFirst","category_code":"games_video","city":"San Francisco","lat":37.790346,"long":-122.40185,"position":{"type":"Point","coordinates":[-122.40185,37.790346]}},{"name":"Streamezzo","category_code":"mobile","city":"Paris","lat":48.872159,"long":2.291225,"position":{"type":"Point","coordinates":[2.291225,48.872159]}},{"name":"RipCode","category_code":"software","city":"Austin","lat":30.402252,"long":-97.748795,"position":{"type":"Point","coordinates":[-97.748795,30.402252]}},{"name":"Deem","category_code":"ecommerce","city":"San Francisco","lat":37.559836,"long":-122.271532,"position":{"type":"Point","coordinates":[-122.271532,37.559836]}},{"name":"Shozu","category_code":"mobile","city":"San Francisco","lat":37.771706,"long":-122.402683,"position":{"type":"Point","coordinates":[-122.402683,37.771706]}},{"name":"SimulScribe","category_code":"web","city":"New York","lat":40.762673,"long":-73.969296,"position":{"type":"Point","coordinates":[-73.969296,40.762673]}},{"name":"Bunchball","category_code":"software","city":"Redwood City","lat":37.3208403,"long":-121.9479223,"position":{"type":"Point","coordinates":[-121.9479223,37.3208403]}},{"name":"Hooja","category_code":"mobile","city":"Palo Alto","lat":37.437328,"long":-122.159928,"position":{"type":"Point","coordinates":[-122.159928,37.437328]}},{"name":"TravelMuse","category_code":"web","city":"New York","lat":37.402802,"long":-122.117418,"position":{"type":"Point","coordinates":[-122.117418,37.402802]}},{"name":"Delve Networks","category_code":"games_video","city":"Seattle","lat":47.600818,"long":-122.334117,"position":{"type":"Point","coordinates":[-122.334117,47.600818]}},{"name":"LifeOnKey","category_code":"web","city":"New York","lat":37.09024,"long":-95.712891,"position":{"type":"Point","coordinates":[-95.712891,37.09024]}},{"name":"Scrapblog","category_code":"web","city":"San Francisco","lat":25.752358,"long":-80.25468,"position":{"type":"Point","coordinates":[-80.25468,25.752358]}},{"name":"4Home","category_code":"software","city":"Sunnyvale","lat":37.385225,"long":-121.991912,"position":{"type":"Point","coordinates":[-121.991912,37.385225]}},{"name":"Outspark","category_code":"games_video","city":"San Francisco","lat":37.775196,"long":-122.419204,"position":{"type":"Point","coordinates":[-122.419204,37.775196]}},{"name":"PLYmedia","category_code":"advertising","city":"Palo Alto","lat":37.400821,"long":-122.131383,"position":{"type":"Point","coordinates":[-122.131383,37.400821]}},{"name":"NuConomy","category_code":"advertising","city":"San Francisco","lat":37.795191,"long":-122.430411,"position":{"type":"Point","coordinates":[-122.430411,37.795191]}},{"name":"yoonew","category_code":"web","city":"New York","lat":40.75362,"long":-73.986557,"position":{"type":"Point","coordinates":[-73.986557,40.75362]}},{"name":"Oversee","category_code":"web","city":"Los Angeles","lat":34.051368,"long":-118.256305,"position":{"type":"Point","coordinates":[-118.256305,34.051368]}},{"name":"RazorGator","category_code":"ecommerce","city":"Los Angeles","lat":34.047312,"long":-118.445243,"position":{"type":"Point","coordinates":[-118.445243,34.047312]}},{"name":"Mumboe","category_code":"software","city":"Austin","lat":30.390071,"long":-97.711652,"position":{"type":"Point","coordinates":[-97.711652,30.390071]}},{"name":"Wellsphere","category_code":"web","city":"San Mateo","lat":37.55153,"long":-122.314072,"position":{"type":"Point","coordinates":[-122.314072,37.55153]}},{"name":"Zynga","category_code":"games_video","city":"San Francisco","lat":37.765158,"long":-122.404234,"position":{"type":"Point","coordinates":[-122.404234,37.765158]}},{"name":"CleverSet","category_code":"ecommerce","city":"Seattle","lat":47.605711,"long":-122.33872,"position":{"type":"Point","coordinates":[-122.33872,47.605711]}},{"name":"Roost","category_code":"software","city":"San Francisco","lat":37.7891288,"long":-122.4020276,"position":{"type":"Point","coordinates":[-122.4020276,37.7891288]}},{"name":"Visible Measures","category_code":"advertising","city":"Boston","lat":42.3536303,"long":-71.0590483,"position":{"type":"Point","coordinates":[-71.0590483,42.3536303]}},{"name":"Amobee","category_code":"advertising","city":"Redwood City","lat":37.52845,"long":-122.263721,"position":{"type":"Point","coordinates":[-122.263721,37.52845]}},{"name":"WorldTV","category_code":"games_video","city":"London","lat":51.5001524,"long":-0.1262362,"position":{"type":"Point","coordinates":[-0.1262362,51.5001524]}},{"name":"Lijit Networks","category_code":"advertising","city":"Boulder","lat":40.01621,"long":-105.28131,"position":{"type":"Point","coordinates":[-105.28131,40.01621]}},{"name":"clipsync","category_code":"web","city":"San Francisco","lat":37.2906027,"long":-121.9317853,"position":{"type":"Point","coordinates":[-121.9317853,37.2906027]}},{"name":"Lookery","category_code":"web","city":"San Francisco","lat":37.788266,"long":-122.403865,"position":{"type":"Point","coordinates":[-122.403865,37.788266]}},{"name":"Lookery","category_code":"web","city":"Cambridge","lat":42.398424,"long":-71.130297,"position":{"type":"Point","coordinates":[-71.130297,42.398424]}},{"name":"comScore","category_code":"web","city":"Reston","lat":38.9579071,"long":-77.3577568,"position":{"type":"Point","coordinates":[-77.3577568,38.9579071]}},{"name":"Sharetivity","category_code":"web","city":"Palo Alto","lat":37.550954,"long":-122.315396,"position":{"type":"Point","coordinates":[-122.315396,37.550954]}},{"name":"Seatwave","category_code":"ecommerce","city":"London","lat":51.500152,"long":-0.126236,"position":{"type":"Point","coordinates":[-0.126236,51.500152]}},{"name":"VisualCV","category_code":"web","city":"Reston","lat":38.9530391,"long":-77.3479238,"position":{"type":"Point","coordinates":[-77.3479238,38.9530391]}},{"name":"Craigslist","category_code":"web","city":"San Francisco","lat":37.762512,"long":-122.46649,"position":{"type":"Point","coordinates":[-122.46649,37.762512]}},{"name":"TalentSpring","category_code":"web","city":"Seattle","lat":47.680496,"long":-122.120938,"position":{"type":"Point","coordinates":[-122.120938,47.680496]}},{"name":"Collarity","category_code":"advertising","city":"Palo Alto","lat":37.407752,"long":-122.154565,"position":{"type":"Point","coordinates":[-122.154565,37.407752]}},{"name":"Maven Networks","category_code":"games_video","city":"Cambridge","lat":42.375392,"long":-71.118487,"position":{"type":"Point","coordinates":[-71.118487,42.375392]}},{"name":"The Point","category_code":"web","city":"Chicago","lat":41.896499,"long":-87.643622,"position":{"type":"Point","coordinates":[-87.643622,41.896499]}},{"name":"Mixbook","category_code":"web","city":"Palo Alto","lat":37.383844,"long":-121.918319,"position":{"type":"Point","coordinates":[-121.918319,37.383844]}},{"name":"GameDuell","category_code":"games_video","city":"Berlin","lat":52.5131826,"long":13.3941489,"position":{"type":"Point","coordinates":[13.3941489,52.5131826]}},{"name":"stickK","category_code":"web","city":"New York","lat":40.744837,"long":-73.983843,"position":{"type":"Point","coordinates":[-73.983843,40.744837]}},{"name":"Bragster","category_code":"web","city":"London","lat":51.5220072,"long":-0.0766034,"position":{"type":"Point","coordinates":[-0.0766034,51.5220072]}},{"name":"Oddcast","category_code":"web","city":"New York","lat":40.752325,"long":-73.988477,"position":{"type":"Point","coordinates":[-73.988477,40.752325]}},{"name":"Escapia","category_code":"software","city":"Seattle","lat":47.613896,"long":-122.3413,"position":{"type":"Point","coordinates":[-122.3413,47.613896]}},{"name":"GumGum","category_code":"advertising","city":"Santa Monica","lat":34.052187,"long":-118.243425,"position":{"type":"Point","coordinates":[-118.243425,34.052187]}},{"name":"TwoFish","category_code":"ecommerce","city":"Redwood City","lat":37.522281,"long":-122.258139,"position":{"type":"Point","coordinates":[-122.258139,37.522281]}},{"name":"Three Rings","category_code":"web","city":"San Francisco","lat":37.775196,"long":-122.419204,"position":{"type":"Point","coordinates":[-122.419204,37.775196]}},{"name":"ChoiceStream","category_code":"advertising","city":"Boston","lat":42.36638,"long":-71.093601,"position":{"type":"Point","coordinates":[-71.093601,42.36638]}},{"name":"Smalltown","category_code":"web","city":"San Mateo","lat":37.566123,"long":-122.323045,"position":{"type":"Point","coordinates":[-122.323045,37.566123]}},{"name":"Shelfari","category_code":"web","city":"Seattle","lat":47.620716,"long":-122.347533,"position":{"type":"Point","coordinates":[-122.347533,47.620716]}},{"name":"Cellfire","category_code":"mobile","city":"San Jose","lat":37.395923,"long":-121.92902,"position":{"type":"Point","coordinates":[-121.92902,37.395923]}},{"name":"TheLadders","category_code":"web","city":"New York","lat":40.725883,"long":-74.006196,"position":{"type":"Point","coordinates":[-74.006196,40.725883]}},{"name":"Social Gaming Network","category_code":"games_video","city":"Los Angeles","lat":37.446823,"long":-122.161523,"position":{"type":"Point","coordinates":[-122.161523,37.446823]}},{"name":"Danger","category_code":"mobile","city":"Palo Alto","lat":37.425168,"long":-122.136248,"position":{"type":"Point","coordinates":[-122.136248,37.425168]}},{"name":"Fortify Software","category_code":"software","city":"San Mateo","lat":37.560781,"long":-122.284114,"position":{"type":"Point","coordinates":[-122.284114,37.560781]}},{"name":"doubleTwist","category_code":"software","city":"San Francisco","lat":37.775196,"long":-122.419204,"position":{"type":"Point","coordinates":[-122.419204,37.775196]}},{"name":"MediaTrust","category_code":"advertising","city":"New York","lat":40.743662,"long":-73.984268,"position":{"type":"Point","coordinates":[-73.984268,40.743662]}},{"name":"AdoTube","category_code":"advertising","city":"New York","lat":40.752672,"long":-73.97593,"position":{"type":"Point","coordinates":[-73.97593,40.752672]}},{"name":"RiffTrax","category_code":"games_video","city":"San Diego","lat":32.936973,"long":-117.240431,"position":{"type":"Point","coordinates":[-117.240431,32.936973]}},{"name":"FameCast","category_code":"games_video","city":"Austin","lat":30.268735,"long":-97.745209,"position":{"type":"Point","coordinates":[-97.745209,30.268735]}},{"name":"Evernote","category_code":"software","city":"Redwood City","lat":37.386774,"long":-121.987661,"position":{"type":"Point","coordinates":[-121.987661,37.386774]}},{"name":"Raptr","category_code":"games_video","city":"Mountain View","lat":37.40384,"long":-122.07808,"position":{"type":"Point","coordinates":[-122.07808,37.40384]}},{"name":"Ad Infuse","category_code":"advertising","city":"San Francisco","lat":37.793375,"long":-122.404571,"position":{"type":"Point","coordinates":[-122.404571,37.793375]}},{"name":"GoldSpot Media","category_code":"advertising","city":"Sunnyvale","lat":37.384206,"long":-121.992805,"position":{"type":"Point","coordinates":[-121.992805,37.384206]}},{"name":"Inform Technologies","category_code":"web","city":"New York","lat":40.744639,"long":-73.983963,"position":{"type":"Point","coordinates":[-73.983963,40.744639]}},{"name":"Intuit","category_code":"software","city":"Mountain View","lat":37.428373,"long":-122.097604,"position":{"type":"Point","coordinates":[-122.097604,37.428373]}},{"name":"Intuit","category_code":"software","city":"San Diego","lat":32.957695,"long":-117.158245,"position":{"type":"Point","coordinates":[-117.158245,32.957695]}},{"name":"SendMe","category_code":"mobile","city":"San Francisco","lat":37.787126,"long":-122.39783,"position":{"type":"Point","coordinates":[-122.39783,37.787126]}},{"name":"Kluster","category_code":"web","city":"New York","lat":40.723652,"long":-73.985281,"position":{"type":"Point","coordinates":[-73.985281,40.723652]}},{"name":"Blog Talk Radio","category_code":"web","city":"New York","lat":40.757929,"long":-73.985506,"position":{"type":"Point","coordinates":[-73.985506,40.757929]}},{"name":"Tiny Pictures","category_code":"mobile","city":"San Francisco","lat":37.781002,"long":-122.406912,"position":{"type":"Point","coordinates":[-122.406912,37.781002]}},{"name":"Flurry","category_code":"advertising","city":"San Francisco","lat":37.783046,"long":-122.394067,"position":{"type":"Point","coordinates":[-122.394067,37.783046]}},{"name":"Issuu","category_code":"web","city":"Palo Alto","lat":37.4784804,"long":-122.1514101,"position":{"type":"Point","coordinates":[-122.1514101,37.4784804]}},{"name":"SugarSync","category_code":"web","city":"San Mateo","lat":37.54763,"long":-122.307887,"position":{"type":"Point","coordinates":[-122.307887,37.54763]}},{"name":"BillShrink","category_code":"web","city":"Redwood City","lat":37.503147,"long":-122.211435,"position":{"type":"Point","coordinates":[-122.211435,37.503147]}},{"name":"DivX","category_code":"software","city":"San Diego","lat":32.880882,"long":-117.203309,"position":{"type":"Point","coordinates":[-117.203309,32.880882]}},{"name":"Mochila","category_code":"advertising","city":"New York","lat":40.711982,"long":-74.008622,"position":{"type":"Point","coordinates":[-74.008622,40.711982]}},{"name":"Yodlee","category_code":"ecommerce","city":"Redwood City","lat":37.538603,"long":-122.251539,"position":{"type":"Point","coordinates":[-122.251539,37.538603]}},{"name":"OLX","category_code":"web","city":"New York","lat":40.8587524,"long":-73.7258199,"position":{"type":"Point","coordinates":[-73.7258199,40.8587524]}},{"name":"XO Group","category_code":"web","city":"New York","lat":40.720824,"long":-74.00007,"position":{"type":"Point","coordinates":[-74.00007,40.720824]}},{"name":"Right Media","category_code":"advertising","city":"New York","lat":40.74632,"long":-73.982607,"position":{"type":"Point","coordinates":[-73.982607,40.74632]}},{"name":"Boonty","category_code":"games_video","city":"New York","lat":40.717248,"long":-74.002662,"position":{"type":"Point","coordinates":[-74.002662,40.717248]}},{"name":"Phreesia","category_code":"software","city":"New York","lat":40.739794,"long":-73.985878,"position":{"type":"Point","coordinates":[-73.985878,40.739794]}},{"name":"Sportgenic","category_code":"advertising","city":"San Francisco","lat":37.790485,"long":-122.40094,"position":{"type":"Point","coordinates":[-122.40094,37.790485]}},{"name":"crowdSPRING","category_code":"ecommerce","city":"Chicago","lat":41.88583,"long":-87.657354,"position":{"type":"Point","coordinates":[-87.657354,41.88583]}},{"name":"99designs","category_code":"design","city":"San Francisco","lat":37.7955307,"long":-122.4005983,"position":{"type":"Point","coordinates":[-122.4005983,37.7955307]}},{"name":"99designs","category_code":"design","city":"Berlin","lat":52.4986199,"long":13.4469031,"position":{"type":"Point","coordinates":[13.4469031,52.4986199]}},{"name":"Ifbyphone","category_code":"software","city":"Chicago","lat":42.040851,"long":-87.750643,"position":{"type":"Point","coordinates":[-87.750643,42.040851]}},{"name":"LiveRail","category_code":"advertising","city":"San Francisco","lat":37.787183,"long":-122.397759,"position":{"type":"Point","coordinates":[-122.397759,37.787183]}},{"name":"Generate","category_code":"games_video","city":"Santa Monica","lat":34.031328,"long":-118.471463,"position":{"type":"Point","coordinates":[-118.471463,34.031328]}},{"name":"Generate","category_code":"games_video","city":"New York","lat":40.7570972,"long":-73.969821,"position":{"type":"Point","coordinates":[-73.969821,40.7570972]}},{"name":"Elance","category_code":"web","city":"Mountain View","lat":37.398022,"long":-122.049143,"position":{"type":"Point","coordinates":[-122.049143,37.398022]}},{"name":"Innovid","category_code":"advertising","city":"New York","lat":40.722655,"long":-73.99873,"position":{"type":"Point","coordinates":[-73.99873,40.722655]}},{"name":"Satmetrix","category_code":"software","city":"San Mateo","lat":37.55818,"long":-122.276454,"position":{"type":"Point","coordinates":[-122.276454,37.55818]}},{"name":"Tripology","category_code":"web","city":"New York","lat":40.746883,"long":-73.983969,"position":{"type":"Point","coordinates":[-73.983969,40.746883]}},{"name":"Skimlinks","category_code":"advertising","city":"London","lat":51.522727,"long":-0.084462,"position":{"type":"Point","coordinates":[-0.084462,51.522727]}},{"name":"Giant Realm","category_code":"web","city":"New York","lat":40.7566658,"long":-73.9827553,"position":{"type":"Point","coordinates":[-73.9827553,40.7566658]}},{"name":"Visto","category_code":"mobile","city":"Sunnyvale","lat":37.518539,"long":-122.254275,"position":{"type":"Point","coordinates":[-122.254275,37.518539]}},{"name":"Polaris Wireless","category_code":"mobile","city":"Mountain View","lat":37.397528,"long":-122.05892,"position":{"type":"Point","coordinates":[-122.05892,37.397528]}},{"name":"DailyStrength","category_code":"web","city":"Los Angeles","lat":34.043948,"long":-118.468204,"position":{"type":"Point","coordinates":[-118.468204,34.043948]}},{"name":"PopularMedia","category_code":"advertising","city":"San Francisco","lat":37.767575,"long":-122.411157,"position":{"type":"Point","coordinates":[-122.411157,37.767575]}},{"name":"Clarizen","category_code":"software","city":"San Mateo","lat":37.536044,"long":-122.328401,"position":{"type":"Point","coordinates":[-122.328401,37.536044]}},{"name":"Next New Networks","category_code":"web","city":"New York","lat":40.743808,"long":-73.983626,"position":{"type":"Point","coordinates":[-73.983626,40.743808]}},{"name":"Skydeck","category_code":"mobile","city":"Palo Alto","lat":37.5645375,"long":-122.3254705,"position":{"type":"Point","coordinates":[-122.3254705,37.5645375]}},{"name":"Invoke Solutions","category_code":"web","city":"Waltham","lat":42.397435,"long":-71.252147,"position":{"type":"Point","coordinates":[-71.252147,42.397435]}},{"name":"Sprout","category_code":"advertising","city":"San Francisco","lat":37.755012,"long":-122.418137,"position":{"type":"Point","coordinates":[-122.418137,37.755012]}},{"name":"NeoEdge Networks","category_code":"advertising","city":"Mountain View","lat":37.393679,"long":-122.079017,"position":{"type":"Point","coordinates":[-122.079017,37.393679]}},{"name":"Jivox","category_code":"advertising","city":"Redwood City","lat":37.555962,"long":-122.288006,"position":{"type":"Point","coordinates":[-122.288006,37.555962]}},{"name":"Krillion","category_code":"web","city":"Mountain View","lat":37.391727,"long":-122.077597,"position":{"type":"Point","coordinates":[-122.077597,37.391727]}},{"name":"Elastra","category_code":"software","city":"San Francisco","lat":37.791137,"long":-122.391843,"position":{"type":"Point","coordinates":[-122.391843,37.791137]}},{"name":"Star Analytics","category_code":"software","city":"San Mateo","lat":37.556152,"long":-122.281484,"position":{"type":"Point","coordinates":[-122.281484,37.556152]}},{"name":"kwiry","category_code":"mobile","city":"San Francisco","lat":37.7885714,"long":-122.4035985,"position":{"type":"Point","coordinates":[-122.4035985,37.7885714]}},{"name":"Replay Solutions","category_code":"software","city":"Redwood City","lat":37.512318,"long":-122.200914,"position":{"type":"Point","coordinates":[-122.200914,37.512318]}},{"name":"InMage Systems","category_code":"software","city":"San Jose","lat":37.381034,"long":-121.971487,"position":{"type":"Point","coordinates":[-121.971487,37.381034]}},{"name":"CITTIO","category_code":"software","city":"San Francisco","lat":37.7867612,"long":-122.4014585,"position":{"type":"Point","coordinates":[-122.4014585,37.7867612]}},{"name":"Playfish","category_code":"games_video","city":"London","lat":51.4991094,"long":-0.1984802,"position":{"type":"Point","coordinates":[-0.1984802,51.4991094]}},{"name":"Rapt","category_code":"software","city":"San Francisco","lat":37.781689,"long":-122.391061,"position":{"type":"Point","coordinates":[-122.391061,37.781689]}},{"name":"Tapioca Mobile","category_code":"mobile","city":"San Diego","lat":32.88945,"long":-117.166929,"position":{"type":"Point","coordinates":[-117.166929,32.88945]}},{"name":"Monitor110","category_code":"web","city":"New York","lat":40.732748,"long":-73.992607,"position":{"type":"Point","coordinates":[-73.992607,40.732748]}},{"name":"KidZui","category_code":"web","city":"San Diego","lat":37.09024,"long":-95.712891,"position":{"type":"Point","coordinates":[-95.712891,37.09024]}},{"name":"PopJax","category_code":"web","city":"San Francisco","lat":37.796216,"long":-122.403755,"position":{"type":"Point","coordinates":[-122.403755,37.796216]}},{"name":"Liftopia","category_code":"ecommerce","city":"San Francisco","lat":37.796164,"long":-122.420903,"position":{"type":"Point","coordinates":[-122.420903,37.796164]}},{"name":"Mytopia","category_code":"games_video","city":"Palo Alto","lat":34.007967,"long":-118.489681,"position":{"type":"Point","coordinates":[-118.489681,34.007967]}},{"name":"Netbooks","category_code":"web","city":"San Francisco","lat":37.79471,"long":-122.40195,"position":{"type":"Point","coordinates":[-122.40195,37.79471]}},{"name":"Magento","category_code":"ecommerce","city":"Los Angeles","lat":34.052187,"long":-118.243425,"position":{"type":"Point","coordinates":[-118.243425,34.052187]}},{"name":"SlideShare","category_code":"web","city":"San Francisco","lat":37.776878,"long":-122.400934,"position":{"type":"Point","coordinates":[-122.400934,37.776878]}},{"name":"Pikum","category_code":"games_video","city":"London","lat":51.539778,"long":-0.152998,"position":{"type":"Point","coordinates":[-0.152998,51.539778]}},{"name":"ibeatyou","category_code":"games_video","city":"Santa Monica","lat":34.0195,"long":-118.4906,"position":{"type":"Point","coordinates":[-118.4906,34.0195]}},{"name":"Clearwell Systems","category_code":"software","city":"Mountain View","lat":37.398022,"long":-122.049143,"position":{"type":"Point","coordinates":[-122.049143,37.398022]}},{"name":"Digital Railroad","category_code":"web","city":"New York","lat":40.735327,"long":-73.988469,"position":{"type":"Point","coordinates":[-73.988469,40.735327]}},{"name":"Business Insider","category_code":"web","city":"New York","lat":40.73906,"long":-73.990911,"position":{"type":"Point","coordinates":[-73.990911,40.73906]}},{"name":"Zemanta","category_code":"web","city":"London","lat":51.5141566,"long":-0.0934254,"position":{"type":"Point","coordinates":[-0.0934254,51.5141566]}},{"name":"Zemanta","category_code":"web","city":"New York","lat":40.7387945,"long":-73.9939213,"position":{"type":"Point","coordinates":[-73.9939213,40.7387945]}},{"name":"Bango","category_code":"mobile","city":"Cambridge","lat":52.2155382,"long":0.124024,"position":{"type":"Point","coordinates":[0.124024,52.2155382]}},{"name":"Bango","category_code":"mobile","city":"New York","lat":40.7412488,"long":-73.9912518,"position":{"type":"Point","coordinates":[-73.9912518,40.7412488]}},{"name":"Realtime Worlds","category_code":"games_video","city":"Boulder","lat":40.010492,"long":-105.276843,"position":{"type":"Point","coordinates":[-105.276843,40.010492]}},{"name":"Red Bend Software","category_code":"mobile","city":"Waltham","lat":42.389795,"long":-71.239286,"position":{"type":"Point","coordinates":[-71.239286,42.389795]}},{"name":"Berkeley Design Automation","category_code":"software","city":"Santa Clara","lat":37.374659,"long":-121.970209,"position":{"type":"Point","coordinates":[-121.970209,37.374659]}},{"name":"Marketo","category_code":"software","city":"San Mateo","lat":37.5583,"long":-122.301385,"position":{"type":"Point","coordinates":[-122.301385,37.5583]}},{"name":"Bonobos","category_code":"ecommerce","city":"New York","lat":40.7384997,"long":-73.9954585,"position":{"type":"Point","coordinates":[-73.9954585,40.7384997]}},{"name":"eYeka","category_code":"software","city":"Paris","lat":48.856667,"long":2.350987,"position":{"type":"Point","coordinates":[2.350987,48.856667]}},{"name":"Cellufun","category_code":"games_video","city":"New York","lat":40.73993,"long":-73.9930489,"position":{"type":"Point","coordinates":[-73.9930489,40.73993]}},{"name":"Xoopit","category_code":"web","city":"San Francisco","lat":37.7617955,"long":-122.4092704,"position":{"type":"Point","coordinates":[-122.4092704,37.7617955]}},{"name":"Spongecell","category_code":"advertising","city":"New York","lat":37.773727,"long":-122.401537,"position":{"type":"Point","coordinates":[-122.401537,37.773727]}},{"name":"Metaversum","category_code":"web","city":"Berlin","lat":52.512249,"long":13.419841,"position":{"type":"Point","coordinates":[13.419841,52.512249]}},{"name":"Placecast","category_code":"mobile","city":"San Francisco","lat":37.773688,"long":-122.423468,"position":{"type":"Point","coordinates":[-122.423468,37.773688]}},{"name":"Stylehive","category_code":"ecommerce","city":"San Francisco","lat":37.787646,"long":-122.402759,"position":{"type":"Point","coordinates":[-122.402759,37.787646]}},{"name":"CarDomain Network","category_code":"web","city":"Seattle","lat":47.634741,"long":-122.340435,"position":{"type":"Point","coordinates":[-122.340435,47.634741]}},{"name":"Palm","category_code":"mobile","city":"Sunnyvale","lat":37.392362,"long":-122.040051,"position":{"type":"Point","coordinates":[-122.040051,37.392362]}},{"name":"Kublax","category_code":"web","city":"London","lat":51.5001524,"long":-0.1262362,"position":{"type":"Point","coordinates":[-0.1262362,51.5001524]}},{"name":"Undertone","category_code":"advertising","city":"New York","lat":40.7509033,"long":-73.9779759,"position":{"type":"Point","coordinates":[-73.9779759,40.7509033]}},{"name":"Undertone","category_code":"advertising","city":"Chicago","lat":41.8864688,"long":-87.6322669,"position":{"type":"Point","coordinates":[-87.6322669,41.8864688]}},{"name":"Undertone","category_code":"advertising","city":"San Francisco","lat":37.792949,"long":-122.398099,"position":{"type":"Point","coordinates":[-122.398099,37.792949]}},{"name":"Undertone","category_code":"advertising","city":"London","lat":51.5118239,"long":-0.132904,"position":{"type":"Point","coordinates":[-0.132904,51.5118239]}},{"name":"Frengo","category_code":"web","city":"San Mateo","lat":37.553121,"long":-122.301534,"position":{"type":"Point","coordinates":[-122.301534,37.553121]}},{"name":"Cotendo","category_code":"software","city":"Sunnyvale","lat":37.504764,"long":-122.259568,"position":{"type":"Point","coordinates":[-122.259568,37.504764]}},{"name":"mBlox","category_code":"mobile","city":"Sunnyvale","lat":37.37604,"long":-122.025257,"position":{"type":"Point","coordinates":[-122.025257,37.37604]}},{"name":"Zong","category_code":"mobile","city":"Menlo Park","lat":37.4429885,"long":-122.1624131,"position":{"type":"Point","coordinates":[-122.1624131,37.4429885]}},{"name":"GuardianEdge Technologies","category_code":"software","city":"San Mateo","lat":37.778613,"long":-122.395289,"position":{"type":"Point","coordinates":[-122.395289,37.778613]}},{"name":"Cellfish","category_code":"web","city":"New York","lat":40.761855,"long":-73.983754,"position":{"type":"Point","coordinates":[-73.983754,40.761855]}},{"name":"Marin Software","category_code":"advertising","city":"San Francisco","lat":37.792083,"long":-122.3946404,"position":{"type":"Point","coordinates":[-122.3946404,37.792083]}},{"name":"SiBEAM","category_code":"mobile","city":"Sunnyvale","lat":37.390704,"long":-122.03039,"position":{"type":"Point","coordinates":[-122.03039,37.390704]}},{"name":"Velocix","category_code":"games_video","city":"New York","lat":40.758504,"long":-73.980068,"position":{"type":"Point","coordinates":[-73.980068,40.758504]}},{"name":"Boxbe","category_code":"web","city":"San Francisco","lat":37.800209,"long":-122.442592,"position":{"type":"Point","coordinates":[-122.442592,37.800209]}},{"name":"RichRelevance","category_code":"ecommerce","city":"San Francisco","lat":37.7938969,"long":-122.4000965,"position":{"type":"Point","coordinates":[-122.4000965,37.7938969]}},{"name":"mySupermarket","category_code":"web","city":"New York","lat":53.478714,"long":-2.244824,"position":{"type":"Point","coordinates":[-2.244824,53.478714]}},{"name":"mySupermarket","category_code":"web","city":"London","lat":51.513671,"long":-0.159205,"position":{"type":"Point","coordinates":[-0.159205,51.513671]}},{"name":"TrustedPlaces","category_code":"advertising","city":"London","lat":51.524483,"long":-0.113583,"position":{"type":"Point","coordinates":[-0.113583,51.524483]}},{"name":"Shopflick","category_code":"ecommerce","city":"Los Angeles","lat":34.044939,"long":-118.419067,"position":{"type":"Point","coordinates":[-118.419067,34.044939]}},{"name":"PGP Corporation","category_code":"software","city":"Menlo Park","lat":37.481407,"long":-122.169958,"position":{"type":"Point","coordinates":[-122.169958,37.481407]}},{"name":"Mojiva","category_code":"mobile","city":"New York","lat":40.7185614,"long":-73.998662,"position":{"type":"Point","coordinates":[-73.998662,40.7185614]}},{"name":"GitHub","category_code":"software","city":"San Francisco","lat":37.775196,"long":-122.419204,"position":{"type":"Point","coordinates":[-122.419204,37.775196]}},{"name":"Iminent","category_code":"software","city":"Paris","lat":48.8522431,"long":2.387422,"position":{"type":"Point","coordinates":[2.387422,48.8522431]}},{"name":"Kasenna","category_code":"software","city":"Sunnyvale","lat":37.407588,"long":-122.019357,"position":{"type":"Point","coordinates":[-122.019357,37.407588]}},{"name":"AdXpose","category_code":"advertising","city":"Seattle","lat":47.635354,"long":-122.340459,"position":{"type":"Point","coordinates":[-122.340459,47.635354]}},{"name":"Visible World","category_code":"advertising","city":"New York","lat":40.75406,"long":-73.999003,"position":{"type":"Point","coordinates":[-73.999003,40.75406]}},{"name":"Memeo","category_code":"software","city":"Santa Clara","lat":33.585767,"long":-117.731283,"position":{"type":"Point","coordinates":[-117.731283,33.585767]}},{"name":"Globant","category_code":"software","city":"London","lat":51.5205095,"long":-0.0952197,"position":{"type":"Point","coordinates":[-0.0952197,51.5205095]}},{"name":"Globant","category_code":"software","city":"San Francisco","lat":37.7819286,"long":-122.4041764,"position":{"type":"Point","coordinates":[-122.4041764,37.7819286]}},{"name":"RealMatch","category_code":"advertising","city":"New York","lat":39.047912,"long":-77.19544,"position":{"type":"Point","coordinates":[-77.19544,39.047912]}},{"name":"PluggedIn","category_code":"games_video","city":"Santa Monica","lat":34.007967,"long":-118.489681,"position":{"type":"Point","coordinates":[-118.489681,34.007967]}},{"name":"Apture","category_code":"web","city":"San Francisco","lat":37.566042,"long":-122.322954,"position":{"type":"Point","coordinates":[-122.322954,37.566042]}},{"name":"CellSpin","category_code":"advertising","city":"San Jose","lat":37.421731,"long":-121.957018,"position":{"type":"Point","coordinates":[-121.957018,37.421731]}},{"name":"InMobi","category_code":"mobile","city":"San Francisco","lat":37.4465496,"long":-122.1709208,"position":{"type":"Point","coordinates":[-122.1709208,37.4465496]}},{"name":"TeachStreet","category_code":"web","city":"Seattle","lat":47.6171788,"long":-122.3370801,"position":{"type":"Point","coordinates":[-122.3370801,47.6171788]}},{"name":"Wayfair","category_code":"ecommerce","city":"Boston","lat":42.348691,"long":-71.082523,"position":{"type":"Point","coordinates":[-71.082523,42.348691]}},{"name":"Wayfair","category_code":"ecommerce","city":"Berlin","lat":52.4981582,"long":13.4478557,"position":{"type":"Point","coordinates":[13.4478557,52.4981582]}},{"name":"MUBI","category_code":"games_video","city":"Palo Alto","lat":37.44236,"long":-122.161025,"position":{"type":"Point","coordinates":[-122.161025,37.44236]}},{"name":"UserVoice","category_code":"software","city":"San Francisco","lat":36.9751032,"long":-122.0253784,"position":{"type":"Point","coordinates":[-122.0253784,36.9751032]}},{"name":"Modern Feed","category_code":"games_video","city":"Los Angeles","lat":34.085749,"long":-118.343791,"position":{"type":"Point","coordinates":[-118.343791,34.085749]}},{"name":"Aardvark","category_code":"web","city":"San Francisco","lat":37.748676,"long":-122.415813,"position":{"type":"Point","coordinates":[-122.415813,37.748676]}},{"name":"Triggit","category_code":"advertising","city":"San Francisco","lat":37.771208,"long":-122.418129,"position":{"type":"Point","coordinates":[-122.418129,37.771208]}},{"name":"Retail Convergence","category_code":"ecommerce","city":"Boston","lat":42.35888,"long":-71.05682,"position":{"type":"Point","coordinates":[-71.05682,42.35888]}},{"name":"Serious Business","category_code":"games_video","city":"San Francisco","lat":37.7893215,"long":-122.4013624,"position":{"type":"Point","coordinates":[-122.4013624,37.7893215]}},{"name":"RateItAll","category_code":"web","city":"San Francisco","lat":37.755012,"long":-122.418137,"position":{"type":"Point","coordinates":[-122.418137,37.755012]}},{"name":"Tealeaf","category_code":"advertising","city":"San Francisco","lat":37.791242,"long":-122.397133,"position":{"type":"Point","coordinates":[-122.397133,37.791242]}},{"name":"Center'd","category_code":"web","city":"Menlo Park","lat":37.452992,"long":-122.185098,"position":{"type":"Point","coordinates":[-122.185098,37.452992]}},{"name":"Kabam","category_code":"games_video","city":"San Francisco","lat":37.3944561,"long":-122.0785314,"position":{"type":"Point","coordinates":[-122.0785314,37.3944561]}},{"name":"Turbine","category_code":"games_video","city":"Redwood City","lat":37.477652,"long":-122.223384,"position":{"type":"Point","coordinates":[-122.223384,37.477652]}},{"name":"Mind Candy","category_code":"web","city":"London","lat":51.471958,"long":-0.147646,"position":{"type":"Point","coordinates":[-0.147646,51.471958]}},{"name":"Gridstone Research","category_code":"software","city":"San Mateo","lat":37.54588,"long":-122.321354,"position":{"type":"Point","coordinates":[-122.321354,37.54588]}},{"name":"New Relic","category_code":"software","city":"San Francisco","lat":37.269175,"long":-119.306607,"position":{"type":"Point","coordinates":[-119.306607,37.269175]}},{"name":"Zinch","category_code":"web","city":"San Francisco","lat":40.234451,"long":-111.658656,"position":{"type":"Point","coordinates":[-111.658656,40.234451]}},{"name":"Yoono","category_code":"web","city":"San Francisco","lat":37.787204,"long":-122.397884,"position":{"type":"Point","coordinates":[-122.397884,37.787204]}},{"name":"Citizen Sports","category_code":"games_video","city":"San Francisco","lat":37.777513,"long":-122.397044,"position":{"type":"Point","coordinates":[-122.397044,37.777513]}},{"name":"OVGuide","category_code":"games_video","city":"Los Angeles","lat":34.052187,"long":-118.243425,"position":{"type":"Point","coordinates":[-118.243425,34.052187]}},{"name":"EatLime","category_code":"photo_video","city":"San Francisco","lat":37.7749295,"long":-122.4194155,"position":{"type":"Point","coordinates":[-122.4194155,37.7749295]}},{"name":"NewsCred","category_code":"advertising","city":"New York","lat":46.223157,"long":6.124424,"position":{"type":"Point","coordinates":[6.124424,46.223157]}},{"name":"Rosum","category_code":"mobile","city":"Mountain View","lat":37.397302,"long":-122.059562,"position":{"type":"Point","coordinates":[-122.059562,37.397302]}},{"name":"Efficient Frontier","category_code":"advertising","city":"Sunnyvale","lat":37.4049731,"long":-122.0323525,"position":{"type":"Point","coordinates":[-122.0323525,37.4049731]}},{"name":"rVita","category_code":"software","city":"Santa Clara","lat":37.398476,"long":-121.978821,"position":{"type":"Point","coordinates":[-121.978821,37.398476]}},{"name":"Mozes","category_code":"mobile","city":"Palo Alto","lat":37.445667,"long":-122.166911,"position":{"type":"Point","coordinates":[-122.166911,37.445667]}},{"name":"Wavemaker Software","category_code":"software","city":"San Francisco","lat":37.789518,"long":-122.394265,"position":{"type":"Point","coordinates":[-122.394265,37.789518]}},{"name":"VirtualLogix","category_code":"software","city":"Sunnyvale","lat":37.409147,"long":-122.015463,"position":{"type":"Point","coordinates":[-122.015463,37.409147]}},{"name":"Stitcher","category_code":"mobile","city":"San Francisco","lat":37.775196,"long":-122.419204,"position":{"type":"Point","coordinates":[-122.419204,37.775196]}},{"name":"TerraPass","category_code":"web","city":"San Francisco","lat":37.787445,"long":-122.397847,"position":{"type":"Point","coordinates":[-122.397847,37.787445]}},{"name":"SocialVibe","category_code":"advertising","city":"Los Angeles","lat":34.0815238,"long":-118.3826743,"position":{"type":"Point","coordinates":[-118.3826743,34.0815238]}},{"name":"mywaves","category_code":"mobile","city":"Sunnyvale","lat":37.3886,"long":-122.016779,"position":{"type":"Point","coordinates":[-122.016779,37.3886]}},{"name":"Transpera","category_code":"mobile","city":"San Francisco","lat":37.785792,"long":-122.405081,"position":{"type":"Point","coordinates":[-122.405081,37.785792]}},{"name":"Ztail","category_code":"ecommerce","city":"Palo Alto","lat":37.44931,"long":-122.160011,"position":{"type":"Point","coordinates":[-122.160011,37.44931]}},{"name":"GameFly","category_code":"games_video","city":"Los Angeles","lat":33.934558,"long":-118.3962622,"position":{"type":"Point","coordinates":[-118.3962622,33.934558]}},{"name":"JellyCloud","category_code":"advertising","city":"Redwood City","lat":37.485786,"long":-122.206246,"position":{"type":"Point","coordinates":[-122.206246,37.485786]}},{"name":"Bizo","category_code":"advertising","city":"San Francisco","lat":37.7911186,"long":-122.4011706,"position":{"type":"Point","coordinates":[-122.4011706,37.7911186]}},{"name":"Moblyng","category_code":"games_video","city":"Redwood City","lat":37.453665,"long":-122.229069,"position":{"type":"Point","coordinates":[-122.229069,37.453665]}},{"name":"CoverItLive","category_code":"web","city":"Austin","lat":43.6378576,"long":-79.4255306,"position":{"type":"Point","coordinates":[-79.4255306,43.6378576]}},{"name":"Votigo","category_code":"software","city":"Boulder","lat":37.8919079,"long":-122.1192743,"position":{"type":"Point","coordinates":[-122.1192743,37.8919079]}},{"name":"Zefanclub","category_code":"web","city":"Paris","lat":48.868478,"long":2.339843,"position":{"type":"Point","coordinates":[2.339843,48.868478]}},{"name":"Tapatap","category_code":"mobile","city":"San Mateo","lat":37.561589,"long":-122.324571,"position":{"type":"Point","coordinates":[-122.324571,37.561589]}},{"name":"NearbyNow","category_code":"web","city":"Mountain View","lat":37.393836,"long":-122.099454,"position":{"type":"Point","coordinates":[-122.099454,37.393836]}},{"name":"PurePlay","category_code":"games_video","city":"San Francisco","lat":37.775196,"long":-122.419204,"position":{"type":"Point","coordinates":[-122.419204,37.775196]}},{"name":"Aruspex","category_code":"software","city":"San Francisco","lat":37.790346,"long":-122.40185,"position":{"type":"Point","coordinates":[-122.40185,37.790346]}},{"name":"Vaultus Mobile","category_code":"mobile","city":"Boston","lat":42.350359,"long":-71.0506234,"position":{"type":"Point","coordinates":[-71.0506234,42.350359]}},{"name":"gate5","category_code":"mobile","city":"Berlin","lat":52.52348,"long":13.411494,"position":{"type":"Point","coordinates":[13.411494,52.52348]}},{"name":"M:Metrics","category_code":"mobile","city":"Seattle","lat":47.620716,"long":-122.347533,"position":{"type":"Point","coordinates":[-122.347533,47.620716]}},{"name":"B-hive Networks","category_code":"software","city":"San Mateo","lat":37.536402,"long":-122.325129,"position":{"type":"Point","coordinates":[-122.325129,37.536402]}},{"name":"VMware","category_code":"software","city":"Palo Alto","lat":37.403315,"long":-122.145981,"position":{"type":"Point","coordinates":[-122.145981,37.403315]}},{"name":"TeleFlip","category_code":"mobile","city":"Santa Monica","lat":34.01695,"long":-118.451933,"position":{"type":"Point","coordinates":[-118.451933,34.01695]}},{"name":"Jigsaw","category_code":"web","city":"San Mateo","lat":37.552806,"long":-122.291602,"position":{"type":"Point","coordinates":[-122.291602,37.552806]}},{"name":"Backblaze","category_code":"software","city":"Palo Alto","lat":37.44296,"long":-122.151198,"position":{"type":"Point","coordinates":[-122.151198,37.44296]}},{"name":"Navic Networks","category_code":"advertising","city":"Waltham","lat":42.375518,"long":-71.272292,"position":{"type":"Point","coordinates":[-71.272292,42.375518]}},{"name":"appssavvy","category_code":"advertising","city":"New York","lat":40.724604,"long":-73.996876,"position":{"type":"Point","coordinates":[-73.996876,40.724604]}},{"name":"Medallia","category_code":"software","city":"Palo Alto","lat":37.4520239,"long":-122.1797053,"position":{"type":"Point","coordinates":[-122.1797053,37.4520239]}},{"name":"Cooliris","category_code":"web","city":"Palo Alto","lat":37.421447,"long":-122.141604,"position":{"type":"Point","coordinates":[-122.141604,37.421447]}},{"name":"Gamook","category_code":"games_video","city":"Menlo Park","lat":37.41924,"long":-122.208414,"position":{"type":"Point","coordinates":[-122.208414,37.41924]}},{"name":"WSO2","category_code":"software","city":"Palo Alto","lat":37.390918,"long":-122.080843,"position":{"type":"Point","coordinates":[-122.080843,37.390918]}},{"name":"Crowd Science","category_code":"web","city":"San Jose","lat":37.419041,"long":-122.087471,"position":{"type":"Point","coordinates":[-122.087471,37.419041]}},{"name":"CohesiveFT","category_code":"software","city":"Chicago","lat":41.882401,"long":-87.637816,"position":{"type":"Point","coordinates":[-87.637816,41.882401]}},{"name":"BrandYourself","category_code":"web","city":"New York","lat":42.275263,"long":-71.24762,"position":{"type":"Point","coordinates":[-71.24762,42.275263]}},{"name":"StartForce","category_code":"web","city":"San Francisco","lat":37.796164,"long":-122.420903,"position":{"type":"Point","coordinates":[-122.420903,37.796164]}},{"name":"Yield Software","category_code":"advertising","city":"San Mateo","lat":37.558245,"long":-122.302654,"position":{"type":"Point","coordinates":[-122.302654,37.558245]}},{"name":"Pivot","category_code":"software","city":"Cambridge","lat":42.364367,"long":-71.078978,"position":{"type":"Point","coordinates":[-71.078978,42.364367]}},{"name":"The Receivables Exchange","category_code":"ecommerce","city":"New York","lat":40.757651,"long":-73.9752768,"position":{"type":"Point","coordinates":[-73.9752768,40.757651]}},{"name":"Tapulous","category_code":"mobile","city":"Palo Alto","lat":37.444332,"long":-122.161018,"position":{"type":"Point","coordinates":[-122.161018,37.444332]}},{"name":"Codefast","category_code":"software","city":"San Jose","lat":37.316466,"long":-121.873881,"position":{"type":"Point","coordinates":[-121.873881,37.316466]}},{"name":"HealthiNation","category_code":"web","city":"New York","lat":40.739341,"long":-73.988357,"position":{"type":"Point","coordinates":[-73.988357,40.739341]}},{"name":"Hyperic","category_code":"software","city":"Palo Alto","lat":37.4027811,"long":-122.1441615,"position":{"type":"Point","coordinates":[-122.1441615,37.4027811]}},{"name":"Zenoss","category_code":"software","city":"Austin","lat":30.379593,"long":-97.765313,"position":{"type":"Point","coordinates":[-97.765313,30.379593]}},{"name":"Titan Gaming","category_code":"games_video","city":"Santa Monica","lat":53.544711,"long":-113.515769,"position":{"type":"Point","coordinates":[-113.515769,53.544711]}},{"name":"Vivaty","category_code":"web","city":"Menlo Park","lat":37.48032,"long":-122.178371,"position":{"type":"Point","coordinates":[-122.178371,37.48032]}},{"name":"Boxee","category_code":"software","city":"New York","lat":40.745064,"long":-73.992637,"position":{"type":"Point","coordinates":[-73.992637,40.745064]}},{"name":"Exinda","category_code":"software","city":"Boston","lat":40.617122,"long":-111.858073,"position":{"type":"Point","coordinates":[-111.858073,40.617122]}},{"name":"Zoomorama","category_code":"web","city":"Paris","lat":48.854845,"long":2.40352,"position":{"type":"Point","coordinates":[2.40352,48.854845]}},{"name":"Trusera","category_code":"web","city":"Seattle","lat":47.617122,"long":-122.305994,"position":{"type":"Point","coordinates":[-122.305994,47.617122]}},{"name":"Channel Intelligence","category_code":"web","city":"London","lat":51.500152,"long":-0.126236,"position":{"type":"Point","coordinates":[-0.126236,51.500152]}},{"name":"Razz","category_code":"software","city":"San Francisco","lat":37.766909,"long":-122.406676,"position":{"type":"Point","coordinates":[-122.406676,37.766909]}},{"name":"Jibe Mobile","category_code":"mobile","city":"Mountain View","lat":37.4186097,"long":-122.0937686,"position":{"type":"Point","coordinates":[-122.0937686,37.4186097]}},{"name":"WideOrbit","category_code":"advertising","city":"San Francisco","lat":37.7895289,"long":-122.3885899,"position":{"type":"Point","coordinates":[-122.3885899,37.7895289]}},{"name":"SpikeSource","category_code":"software","city":"Mountain View","lat":37.510805,"long":-122.203744,"position":{"type":"Point","coordinates":[-122.203744,37.510805]}},{"name":"CrestaTech","category_code":"software","city":"Santa Clara","lat":37.383368,"long":-121.980186,"position":{"type":"Point","coordinates":[-121.980186,37.383368]}},{"name":"BountyJobs","category_code":"web","city":"New York","lat":40.754211,"long":-73.97917,"position":{"type":"Point","coordinates":[-73.97917,40.754211]}},{"name":"Keibi Technologies","category_code":"software","city":"San Francisco","lat":37.787646,"long":-122.402759,"position":{"type":"Point","coordinates":[-122.402759,37.787646]}},{"name":"Aloqa","category_code":"mobile","city":"Palo Alto","lat":37.43938,"long":-122.158804,"position":{"type":"Point","coordinates":[-122.158804,37.43938]}},{"name":"OkCupid","category_code":"web","city":"New York","lat":40.7368158,"long":-73.9955426,"position":{"type":"Point","coordinates":[-73.9955426,40.7368158]}},{"name":"FusionOne","category_code":"mobile","city":"San Jose","lat":37.333439,"long":-121.895286,"position":{"type":"Point","coordinates":[-121.895286,37.333439]}},{"name":"Appian","category_code":"software","city":"Reston","lat":38.912827,"long":-77.220028,"position":{"type":"Point","coordinates":[-77.220028,38.912827]}},{"name":"Appian","category_code":"software","city":"London","lat":51.513122,"long":-0.094384,"position":{"type":"Point","coordinates":[-0.094384,51.513122]}},{"name":"My Damn Channel","category_code":"games_video","city":"New York","lat":40.754762,"long":-73.988543,"position":{"type":"Point","coordinates":[-73.988543,40.754762]}},{"name":"Drimki","category_code":"ecommerce","city":"Paris","lat":48.856667,"long":2.350987,"position":{"type":"Point","coordinates":[2.350987,48.856667]}},{"name":"Ounce Labs","category_code":"software","city":"Waltham","lat":42.393662,"long":-71.255855,"position":{"type":"Point","coordinates":[-71.255855,42.393662]}},{"name":"LivePerson","category_code":"software","city":"New York","lat":40.751969,"long":-73.99031,"position":{"type":"Point","coordinates":[-73.99031,40.751969]}},{"name":"CashEdge","category_code":"web","city":"New York","lat":40.736796,"long":-73.988339,"position":{"type":"Point","coordinates":[-73.988339,40.736796]}},{"name":"CashEdge","category_code":"web","city":"Sunnyvale","lat":37.406434,"long":-122.014829,"position":{"type":"Point","coordinates":[-122.014829,37.406434]}},{"name":"thePlatform","category_code":"web","city":"Seattle","lat":47.617838,"long":-122.356027,"position":{"type":"Point","coordinates":[-122.356027,47.617838]}},{"name":"Posterous","category_code":"web","city":"San Francisco","lat":37.775196,"long":-122.419204,"position":{"type":"Point","coordinates":[-122.419204,37.775196]}},{"name":"LifePics","category_code":"ecommerce","city":"Boulder","lat":40.025479,"long":-105.219298,"position":{"type":"Point","coordinates":[-105.219298,40.025479]}},{"name":"plista","category_code":"advertising","city":"Berlin","lat":52.5283614,"long":13.4124563,"position":{"type":"Point","coordinates":[13.4124563,52.5283614]}},{"name":"Open Places","category_code":"web","city":"San Francisco","lat":37.758352,"long":-122.398379,"position":{"type":"Point","coordinates":[-122.398379,37.758352]}},{"name":"Genbook","category_code":"web","city":"San Francisco","lat":37.789902,"long":-122.4007791,"position":{"type":"Point","coordinates":[-122.4007791,37.789902]}},{"name":"MetaCarta","category_code":"mobile","city":"Cambridge","lat":42.36236,"long":-71.099692,"position":{"type":"Point","coordinates":[-71.099692,42.36236]}},{"name":"TweetDeck","category_code":"software","city":"London","lat":51.5001524,"long":-0.1262362,"position":{"type":"Point","coordinates":[-0.1262362,51.5001524]}},{"name":"Flowgram","category_code":"web","city":"San Francisco","lat":37.7710177,"long":-122.4025976,"position":{"type":"Point","coordinates":[-122.4025976,37.7710177]}},{"name":"Achievers","category_code":"software","city":"San Francisco","lat":43.637296,"long":-79.425455,"position":{"type":"Point","coordinates":[-79.425455,43.637296]}},{"name":"Reconnex","category_code":"software","city":"Mountain View","lat":37.388072,"long":-122.055975,"position":{"type":"Point","coordinates":[-122.055975,37.388072]}},{"name":"Medialets","category_code":"advertising","city":"New York","lat":40.756054,"long":-73.986951,"position":{"type":"Point","coordinates":[-73.986951,40.756054]}},{"name":"Medialets","category_code":"advertising","city":"San Francisco","lat":37.775196,"long":-122.419204,"position":{"type":"Point","coordinates":[-122.419204,37.775196]}},{"name":"Bitly","category_code":"web","city":"New York","lat":40.74034,"long":-74.00721,"position":{"type":"Point","coordinates":[-74.00721,40.74034]}},{"name":"Involver","category_code":"software","city":"San Francisco","lat":37.788653,"long":-122.401333,"position":{"type":"Point","coordinates":[-122.401333,37.788653]}},{"name":"Videoplaza","category_code":"advertising","city":"London","lat":51.5212481,"long":-0.1020894,"position":{"type":"Point","coordinates":[-0.1020894,51.5212481]}},{"name":"Videoplaza","category_code":"advertising","city":"Berlin","lat":52.5372765,"long":13.3787413,"position":{"type":"Point","coordinates":[13.3787413,52.5372765]}},{"name":"ON24","category_code":"web","city":"San Francisco","lat":37.7850326,"long":-122.4004738,"position":{"type":"Point","coordinates":[-122.4004738,37.7850326]}},{"name":"ON24","category_code":"web","city":"New York","lat":40.719609,"long":-74.000754,"position":{"type":"Point","coordinates":[-74.000754,40.719609]}},{"name":"Zendesk","category_code":"software","city":"San Francisco","lat":55.676294,"long":12.568116,"position":{"type":"Point","coordinates":[12.568116,55.676294]}},{"name":"Epocrates","category_code":"software","city":"San Mateo","lat":37.544987,"long":-122.291394,"position":{"type":"Point","coordinates":[-122.291394,37.544987]}},{"name":"muzu tv","category_code":"web","city":"London","lat":51.513678,"long":-0.13063,"position":{"type":"Point","coordinates":[-0.13063,51.513678]}},{"name":"muzu tv","category_code":"web","city":"New York","lat":40.757716,"long":-73.972321,"position":{"type":"Point","coordinates":[-73.972321,40.757716]}},{"name":"LiquidTalk","category_code":"software","city":"Chicago","lat":41.831001,"long":-87.626918,"position":{"type":"Point","coordinates":[-87.626918,41.831001]}},{"name":"Dexterra","category_code":"mobile","city":"Redwood City","lat":37.512253,"long":-122.201099,"position":{"type":"Point","coordinates":[-122.201099,37.512253]}},{"name":"trueAnthem","category_code":"advertising","city":"San Francisco","lat":37.8059887,"long":-122.4099154,"position":{"type":"Point","coordinates":[-122.4099154,37.8059887]}},{"name":"Lexy","category_code":"games_video","city":"San Francisco","lat":37.786906,"long":-122.397672,"position":{"type":"Point","coordinates":[-122.397672,37.786906]}},{"name":"GenArts","category_code":"games_video","city":"Cambridge","lat":42.369007,"long":-71.110276,"position":{"type":"Point","coordinates":[-71.110276,42.369007]}},{"name":"Vanu","category_code":"software","city":"Cambridge","lat":42.362993,"long":-71.086596,"position":{"type":"Point","coordinates":[-71.086596,42.362993]}},{"name":"Hands-On Mobile","category_code":"mobile","city":"San Francisco","lat":37.775196,"long":-122.419204,"position":{"type":"Point","coordinates":[-122.419204,37.775196]}},{"name":"SAVO","category_code":"software","city":"Chicago","lat":41.87675,"long":-87.640458,"position":{"type":"Point","coordinates":[-87.640458,41.87675]}},{"name":"Coremetrics","category_code":"advertising","city":"San Mateo","lat":37.55873,"long":-122.27992,"position":{"type":"Point","coordinates":[-122.27992,37.55873]}},{"name":"Minted","category_code":"ecommerce","city":"San Francisco","lat":37.797435,"long":-122.403175,"position":{"type":"Point","coordinates":[-122.403175,37.797435]}},{"name":"Buysight","category_code":"advertising","city":"Palo Alto","lat":37.425359,"long":-122.1389633,"position":{"type":"Point","coordinates":[-122.1389633,37.425359]}},{"name":"Black Duck Software","category_code":"software","city":"Waltham","lat":42.398916,"long":-71.253998,"position":{"type":"Point","coordinates":[-71.253998,42.398916]}},{"name":"Black Duck Software","category_code":"software","city":"San Mateo","lat":37.556152,"long":-122.281484,"position":{"type":"Point","coordinates":[-122.281484,37.556152]}},{"name":"CarbonFlow","category_code":"software","city":"London","lat":51.500152,"long":-0.126236,"position":{"type":"Point","coordinates":[-0.126236,51.500152]}},{"name":"Huddler","category_code":"web","city":"San Francisco","lat":37.7893215,"long":-122.4013624,"position":{"type":"Point","coordinates":[-122.4013624,37.7893215]}},{"name":"Livebookings","category_code":"advertising","city":"London","lat":51.5112139,"long":-0.1198244,"position":{"type":"Point","coordinates":[-0.1198244,51.5112139]}},{"name":"Moxsie","category_code":"ecommerce","city":"Palo Alto","lat":37.437328,"long":-122.159928,"position":{"type":"Point","coordinates":[-122.159928,37.437328]}},{"name":"Admeld","category_code":"advertising","city":"New York","lat":40.755253,"long":-73.992152,"position":{"type":"Point","coordinates":[-73.992152,40.755253]}},{"name":"Roamware","category_code":"mobile","city":"San Jose","lat":37.317799,"long":-121.947497,"position":{"type":"Point","coordinates":[-121.947497,37.317799]}},{"name":"Anvato","category_code":"games_video","city":"Mountain View","lat":37.400689,"long":-122.0572,"position":{"type":"Point","coordinates":[-122.0572,37.400689]}},{"name":"Zorap","category_code":"web","city":"San Francisco","lat":37.775196,"long":-122.419204,"position":{"type":"Point","coordinates":[-122.419204,37.775196]}},{"name":"NeoMedia Technologies","category_code":"mobile","city":"Boulder","lat":33.917509,"long":-84.356503,"position":{"type":"Point","coordinates":[-84.356503,33.917509]}},{"name":"Hunch","category_code":"web","city":"New York","lat":40.741179,"long":-73.993182,"position":{"type":"Point","coordinates":[-73.993182,40.741179]}},{"name":"ngmoco","category_code":"games_video","city":"San Francisco","lat":37.7705096,"long":-122.4015807,"position":{"type":"Point","coordinates":[-122.4015807,37.7705096]}},{"name":"Local Marketers","category_code":"web","city":"Seattle","lat":47.5989681,"long":-122.3329036,"position":{"type":"Point","coordinates":[-122.3329036,47.5989681]}},{"name":"AppNexus","category_code":"advertising","city":"New York","lat":40.7250495,"long":-73.9970912,"position":{"type":"Point","coordinates":[-73.9970912,40.7250495]}},{"name":"Sharethrough","category_code":"advertising","city":"San Francisco","lat":37.7976785,"long":-122.4018163,"position":{"type":"Point","coordinates":[-122.4018163,37.7976785]}},{"name":"Paymo","category_code":"mobile","city":"San Francisco","lat":37.798684,"long":-122.40264,"position":{"type":"Point","coordinates":[-122.40264,37.798684]}},{"name":"Paymo","category_code":"mobile","city":"London","lat":51.514165,"long":-0.109017,"position":{"type":"Point","coordinates":[-0.109017,51.514165]}},{"name":"SkyGrid","category_code":"web","city":"Sunnyvale","lat":37.40754,"long":-122.010958,"position":{"type":"Point","coordinates":[-122.010958,37.40754]}},{"name":"dynaTrace software","category_code":"software","city":"Waltham","lat":42.391389,"long":-71.270987,"position":{"type":"Point","coordinates":[-71.270987,42.391389]}},{"name":"Hyper9","category_code":"software","city":"Austin","lat":30.387353,"long":-97.753163,"position":{"type":"Point","coordinates":[-97.753163,30.387353]}},{"name":"MobileAware","category_code":"mobile","city":"Boston","lat":53.342648,"long":-6.280957,"position":{"type":"Point","coordinates":[-6.280957,53.342648]}},{"name":"Innotas","category_code":"software","city":"San Francisco","lat":37.787722,"long":-122.3993979,"position":{"type":"Point","coordinates":[-122.3993979,37.787722]}},{"name":"Varolii","category_code":"software","city":"Seattle","lat":47.604242,"long":-122.334448,"position":{"type":"Point","coordinates":[-122.334448,47.604242]}},{"name":"ZManda","category_code":"software","city":"Sunnyvale","lat":37.3725243,"long":-122.035963,"position":{"type":"Point","coordinates":[-122.035963,37.3725243]}},{"name":"Synchronica","category_code":"mobile","city":"Berlin","lat":52.494722,"long":13.398514,"position":{"type":"Point","coordinates":[13.398514,52.494722]}},{"name":"EnOcean","category_code":"mobile","city":"Boston","lat":42.349048,"long":-71.082153,"position":{"type":"Point","coordinates":[-71.082153,42.349048]}},{"name":"ShopWiki","category_code":"ecommerce","city":"New York","lat":40.740441,"long":-73.993376,"position":{"type":"Point","coordinates":[-73.993376,40.740441]}},{"name":"Occipital","category_code":"software","city":"Boulder","lat":40.018145,"long":-105.278109,"position":{"type":"Point","coordinates":[-105.278109,40.018145]}},{"name":"Foodzie","category_code":"ecommerce","city":"San Francisco","lat":40.0173513,"long":-105.2773493,"position":{"type":"Point","coordinates":[-105.2773493,40.0173513]}},{"name":"UBmatrix","category_code":"software","city":"Redwood City","lat":37.522281,"long":-122.258139,"position":{"type":"Point","coordinates":[-122.258139,37.522281]}},{"name":"Shattered Reality Interactive","category_code":"games_video","city":"San Francisco","lat":37.783046,"long":-122.394067,"position":{"type":"Point","coordinates":[-122.394067,37.783046]}},{"name":"Lyft","category_code":"software","city":"San Francisco","lat":37.7899027,"long":-122.4007846,"position":{"type":"Point","coordinates":[-122.4007846,37.7899027]}},{"name":"Jumptap","category_code":"mobile","city":"Boston","lat":42.368633,"long":-71.075305,"position":{"type":"Point","coordinates":[-71.075305,42.368633]}},{"name":"MetaPack","category_code":"software","city":"London","lat":51.52216,"long":-0.111242,"position":{"type":"Point","coordinates":[-0.111242,51.52216]}},{"name":"Producteev","category_code":"software","city":"New York","lat":40.775309,"long":-73.983656,"position":{"type":"Point","coordinates":[-73.983656,40.775309]}},{"name":"AdRocket","category_code":"advertising","city":"San Francisco","lat":37.775196,"long":-122.419204,"position":{"type":"Point","coordinates":[-122.419204,37.775196]}},{"name":"GoodGuide","category_code":"web","city":"San Francisco","lat":37.7983181,"long":-122.4000032,"position":{"type":"Point","coordinates":[-122.4000032,37.7983181]}},{"name":"PostPath","category_code":"web","city":"Mountain View","lat":37.390501,"long":-122.081151,"position":{"type":"Point","coordinates":[-122.081151,37.390501]}},{"name":"Swype","category_code":"software","city":"Seattle","lat":47.6495905,"long":-122.3497956,"position":{"type":"Point","coordinates":[-122.3497956,47.6495905]}},{"name":"Telespree","category_code":"software","city":"San Francisco","lat":37.777092,"long":-122.391011,"position":{"type":"Point","coordinates":[-122.391011,37.777092]}},{"name":"Intela","category_code":"advertising","city":"Boulder","lat":40.058448,"long":-105.278785,"position":{"type":"Point","coordinates":[-105.278785,40.058448]}},{"name":"Intela","category_code":"advertising","city":"London","lat":51.5139758,"long":-0.1230127,"position":{"type":"Point","coordinates":[-0.1230127,51.5139758]}},{"name":"Picateers","category_code":"web","city":"San Mateo","lat":37.5574,"long":-122.301914,"position":{"type":"Point","coordinates":[-122.301914,37.5574]}},{"name":"Mimosa Systems","category_code":"software","city":"Santa Clara","lat":37.379684,"long":-121.97514,"position":{"type":"Point","coordinates":[-121.97514,37.379684]}},{"name":"Lolapps","category_code":"web","city":"San Francisco","lat":37.7870923,"long":-122.3999719,"position":{"type":"Point","coordinates":[-122.3999719,37.7870923]}},{"name":"Geodelic Systems","category_code":"mobile","city":"Los Angeles","lat":34.005914,"long":-118.488129,"position":{"type":"Point","coordinates":[-118.488129,34.005914]}},{"name":"Connectbeam","category_code":"software","city":"Mountain View","lat":37.401818,"long":-122.050565,"position":{"type":"Point","coordinates":[-122.050565,37.401818]}},{"name":"Helpstream","category_code":"web","city":"Mountain View","lat":37.418262,"long":-122.087859,"position":{"type":"Point","coordinates":[-122.087859,37.418262]}},{"name":"Penguin Computing","category_code":"software","city":"San Francisco","lat":37.783171,"long":-122.392901,"position":{"type":"Point","coordinates":[-122.392901,37.783171]}},{"name":"Hangout Industries","category_code":"games_video","city":"Boston","lat":42.352835,"long":-71.0609612,"position":{"type":"Point","coordinates":[-71.0609612,42.352835]}},{"name":"Pixelpipe","category_code":"mobile","city":"San Francisco","lat":37.764395,"long":-122.401024,"position":{"type":"Point","coordinates":[-122.401024,37.764395]}},{"name":"InnerRewards","category_code":"ecommerce","city":"San Francisco","lat":37.78691,"long":-122.404403,"position":{"type":"Point","coordinates":[-122.404403,37.78691]}},{"name":"InnerRewards","category_code":"ecommerce","city":"New York","lat":40.741594,"long":-73.990468,"position":{"type":"Point","coordinates":[-73.990468,40.741594]}},{"name":"Inadco","category_code":"advertising","city":"Palo Alto","lat":41.889832,"long":-87.626718,"position":{"type":"Point","coordinates":[-87.626718,41.889832]}},{"name":"Zume Life","category_code":"mobile","city":"San Jose","lat":37.368878,"long":-121.917236,"position":{"type":"Point","coordinates":[-121.917236,37.368878]}},{"name":"Hyper9","category_code":"software","city":"Austin","lat":30.387353,"long":-97.753163,"position":{"type":"Point","coordinates":[-97.753163,30.387353]}},{"name":"MobileAware","category_code":"mobile","city":"Boston","lat":53.342648,"long":-6.280957,"position":{"type":"Point","coordinates":[-6.280957,53.342648]}},{"name":"Innotas","category_code":"software","city":"San Francisco","lat":37.787722,"long":-122.3993979,"position":{"type":"Point","coordinates":[-122.3993979,37.787722]}},{"name":"Varolii","category_code":"software","city":"Seattle","lat":47.604242,"long":-122.334448,"position":{"type":"Point","coordinates":[-122.334448,47.604242]}},{"name":"ZManda","category_code":"software","city":"Sunnyvale","lat":37.3725243,"long":-122.035963,"position":{"type":"Point","coordinates":[-122.035963,37.3725243]}},{"name":"Synchronica","category_code":"mobile","city":"Berlin","lat":52.494722,"long":13.398514,"position":{"type":"Point","coordinates":[13.398514,52.494722]}},{"name":"EnOcean","category_code":"mobile","city":"Boston","lat":42.349048,"long":-71.082153,"position":{"type":"Point","coordinates":[-71.082153,42.349048]}},{"name":"ShopWiki","category_code":"ecommerce","city":"New York","lat":40.740441,"long":-73.993376,"position":{"type":"Point","coordinates":[-73.993376,40.740441]}},{"name":"Occipital","category_code":"software","city":"Boulder","lat":40.018145,"long":-105.278109,"position":{"type":"Point","coordinates":[-105.278109,40.018145]}},{"name":"Foodzie","category_code":"ecommerce","city":"San Francisco","lat":40.0173513,"long":-105.2773493,"position":{"type":"Point","coordinates":[-105.2773493,40.0173513]}},{"name":"UBmatrix","category_code":"software","city":"Redwood City","lat":37.522281,"long":-122.258139,"position":{"type":"Point","coordinates":[-122.258139,37.522281]}},{"name":"Lyft","category_code":"software","city":"San Francisco","lat":37.7899027,"long":-122.4007846,"position":{"type":"Point","coordinates":[-122.4007846,37.7899027]}},{"name":"Shattered Reality Interactive","category_code":"games_video","city":"San Francisco","lat":37.783046,"long":-122.394067,"position":{"type":"Point","coordinates":[-122.394067,37.783046]}},{"name":"Jumptap","category_code":"mobile","city":"Boston","lat":42.368633,"long":-71.075305,"position":{"type":"Point","coordinates":[-71.075305,42.368633]}},{"name":"MetaPack","category_code":"software","city":"London","lat":51.52216,"long":-0.111242,"position":{"type":"Point","coordinates":[-0.111242,51.52216]}},{"name":"Producteev","category_code":"software","city":"New York","lat":40.775309,"long":-73.983656,"position":{"type":"Point","coordinates":[-73.983656,40.775309]}},{"name":"AdRocket","category_code":"advertising","city":"San Francisco","lat":37.775196,"long":-122.419204,"position":{"type":"Point","coordinates":[-122.419204,37.775196]}},{"name":"GoodGuide","category_code":"web","city":"San Francisco","lat":37.7983181,"long":-122.4000032,"position":{"type":"Point","coordinates":[-122.4000032,37.7983181]}},{"name":"PostPath","category_code":"web","city":"Mountain View","lat":37.390501,"long":-122.081151,"position":{"type":"Point","coordinates":[-122.081151,37.390501]}},{"name":"Swype","category_code":"software","city":"Seattle","lat":47.6495905,"long":-122.3497956,"position":{"type":"Point","coordinates":[-122.3497956,47.6495905]}},{"name":"Telespree","category_code":"software","city":"San Francisco","lat":37.777092,"long":-122.391011,"position":{"type":"Point","coordinates":[-122.391011,37.777092]}},{"name":"Intela","category_code":"advertising","city":"Boulder","lat":40.058448,"long":-105.278785,"position":{"type":"Point","coordinates":[-105.278785,40.058448]}},{"name":"Intela","category_code":"advertising","city":"London","lat":51.5139758,"long":-0.1230127,"position":{"type":"Point","coordinates":[-0.1230127,51.5139758]}},{"name":"Picateers","category_code":"web","city":"San Mateo","lat":37.5574,"long":-122.301914,"position":{"type":"Point","coordinates":[-122.301914,37.5574]}},{"name":"Mimosa Systems","category_code":"software","city":"Santa Clara","lat":37.379684,"long":-121.97514,"position":{"type":"Point","coordinates":[-121.97514,37.379684]}},{"name":"Lolapps","category_code":"web","city":"San Francisco","lat":37.7870923,"long":-122.3999719,"position":{"type":"Point","coordinates":[-122.3999719,37.7870923]}},{"name":"Geodelic Systems","category_code":"mobile","city":"Los Angeles","lat":34.005914,"long":-118.488129,"position":{"type":"Point","coordinates":[-118.488129,34.005914]}},{"name":"Connectbeam","category_code":"software","city":"Mountain View","lat":37.401818,"long":-122.050565,"position":{"type":"Point","coordinates":[-122.050565,37.401818]}},{"name":"Helpstream","category_code":"web","city":"Mountain View","lat":37.418262,"long":-122.087859,"position":{"type":"Point","coordinates":[-122.087859,37.418262]}},{"name":"Penguin Computing","category_code":"software","city":"San Francisco","lat":37.783171,"long":-122.392901,"position":{"type":"Point","coordinates":[-122.392901,37.783171]}},{"name":"Hangout Industries","category_code":"games_video","city":"Boston","lat":42.352835,"long":-71.0609612,"position":{"type":"Point","coordinates":[-71.0609612,42.352835]}},{"name":"Pixelpipe","category_code":"mobile","city":"San Francisco","lat":37.764395,"long":-122.401024,"position":{"type":"Point","coordinates":[-122.401024,37.764395]}},{"name":"InnerRewards","category_code":"ecommerce","city":"San Francisco","lat":37.78691,"long":-122.404403,"position":{"type":"Point","coordinates":[-122.404403,37.78691]}},{"name":"InnerRewards","category_code":"ecommerce","city":"New York","lat":40.741594,"long":-73.990468,"position":{"type":"Point","coordinates":[-73.990468,40.741594]}},{"name":"Zume Life","category_code":"mobile","city":"San Jose","lat":37.368878,"long":-121.917236,"position":{"type":"Point","coordinates":[-121.917236,37.368878]}},{"name":"Inadco","category_code":"advertising","city":"Palo Alto","lat":41.889832,"long":-87.626718,"position":{"type":"Point","coordinates":[-87.626718,41.889832]}},{"name":"Buzzd","category_code":"mobile","city":"New York","lat":40.733928,"long":-73.991334,"position":{"type":"Point","coordinates":[-73.991334,40.733928]}},{"name":"Gowalla","category_code":"web","city":"Austin","lat":30.2729209,"long":-97.7443863,"position":{"type":"Point","coordinates":[-97.7443863,30.2729209]}},{"name":"PeopleJar","category_code":"web","city":"Los Angeles","lat":34.1030032,"long":-118.4104684,"position":{"type":"Point","coordinates":[-118.4104684,34.1030032]}},{"name":"Brightstorm","category_code":"games_video","city":"San Francisco","lat":37.804619,"long":-122.371203,"position":{"type":"Point","coordinates":[-122.371203,37.804619]}},{"name":"Hollywood Interactive Group","category_code":"web","city":"Los Angeles","lat":34.052187,"long":-118.243425,"position":{"type":"Point","coordinates":[-118.243425,34.052187]}},{"name":"CityVoter","category_code":"web","city":"Cambridge","lat":42.358184,"long":-71.106389,"position":{"type":"Point","coordinates":[-71.106389,42.358184]}},{"name":"Heatwave Interactive","category_code":"games_video","city":"Austin","lat":30.297775,"long":-97.762921,"position":{"type":"Point","coordinates":[-97.762921,30.297775]}},{"name":"Groupon","category_code":"web","city":"Chicago","lat":41.8965162,"long":-87.643622,"position":{"type":"Point","coordinates":[-87.643622,41.8965162]}},{"name":"iTaggit","category_code":"web","city":"Austin","lat":30.268735,"long":-97.745209,"position":{"type":"Point","coordinates":[-97.745209,30.268735]}},{"name":"OneSpot","category_code":"advertising","city":"Austin","lat":30.2686147,"long":-97.7404872,"position":{"type":"Point","coordinates":[-97.7404872,30.2686147]}},{"name":"PicApp","category_code":"web","city":"San Francisco","lat":37.79402,"long":-122.4031242,"position":{"type":"Point","coordinates":[-122.4031242,37.79402]}},{"name":"Bloglovin","category_code":"web","city":"New York","lat":40.740308,"long":-74.007199,"position":{"type":"Point","coordinates":[-74.007199,40.740308]}},{"name":"OQO","category_code":"mobile","city":"San Francisco","lat":37.759117,"long":-122.415869,"position":{"type":"Point","coordinates":[-122.415869,37.759117]}},{"name":"Total Immersion","category_code":"software","city":"Los Angeles","lat":34.062164,"long":-118.358787,"position":{"type":"Point","coordinates":[-118.358787,34.062164]}},{"name":"Avaak","category_code":"mobile","city":"San Diego","lat":32.897274,"long":-117.201076,"position":{"type":"Point","coordinates":[-117.201076,32.897274]}},{"name":"One Season","category_code":"games_video","city":"San Francisco","lat":37.775196,"long":-122.419204,"position":{"type":"Point","coordinates":[-122.419204,37.775196]}},{"name":"Inspirational Stores","category_code":"ecommerce","city":"Paris","lat":48.856667,"long":2.350987,"position":{"type":"Point","coordinates":[2.350987,48.856667]}},{"name":"Mindjet","category_code":"software","city":"San Francisco","lat":50.095312,"long":9.049981,"position":{"type":"Point","coordinates":[9.049981,50.095312]}},{"name":"Reframe It","category_code":"web","city":"San Francisco","lat":37.782163,"long":-122.400591,"position":{"type":"Point","coordinates":[-122.400591,37.782163]}},{"name":"Nexenta Systems","category_code":"software","city":"Santa Clara","lat":37.444098,"long":-122.161287,"position":{"type":"Point","coordinates":[-122.161287,37.444098]}},{"name":"Vinfolio","category_code":"ecommerce","city":"San Francisco","lat":37.763293,"long":-122.410752,"position":{"type":"Point","coordinates":[-122.410752,37.763293]}},{"name":"Britely","category_code":"web","city":"Palo Alto","lat":37.458766,"long":-122.172519,"position":{"type":"Point","coordinates":[-122.172519,37.458766]}},{"name":"Sentrigo","category_code":"software","city":"Santa Clara","lat":37.55911,"long":-122.303493,"position":{"type":"Point","coordinates":[-122.303493,37.55911]}},{"name":"Viximo","category_code":"web","city":"Cambridge","lat":42.398424,"long":-71.130297,"position":{"type":"Point","coordinates":[-71.130297,42.398424]}},{"name":"Siri","category_code":"software","city":"San Jose","lat":37.320052,"long":-121.877636,"position":{"type":"Point","coordinates":[-121.877636,37.320052]}},{"name":"Booyah","category_code":"games_video","city":"San Francisco","lat":37.420728,"long":-122.2103414,"position":{"type":"Point","coordinates":[-122.2103414,37.420728]}},{"name":"Websense","category_code":"software","city":"San Diego","lat":32.890757,"long":-117.211026,"position":{"type":"Point","coordinates":[-117.211026,32.890757]}},{"name":"Image Metrics","category_code":"software","city":"Santa Monica","lat":34.007303,"long":-118.489492,"position":{"type":"Point","coordinates":[-118.489492,34.007303]}},{"name":"GotGame","category_code":"games_video","city":"San Francisco","lat":37.77772,"long":-122.395785,"position":{"type":"Point","coordinates":[-122.395785,37.77772]}},{"name":"Biz360","category_code":"web","city":"Redwood City","lat":37.537587,"long":-122.255539,"position":{"type":"Point","coordinates":[-122.255539,37.537587]}},{"name":"Formspring","category_code":"web","city":"San Francisco","lat":39.9052263,"long":-86.0547016,"position":{"type":"Point","coordinates":[-86.0547016,39.9052263]}},{"name":"ReverbNation","category_code":"software","city":"New York","lat":40.718888,"long":-74.001169,"position":{"type":"Point","coordinates":[-74.001169,40.718888]}},{"name":"For Your Imagination","category_code":"games_video","city":"New York","lat":40.744594,"long":-73.989698,"position":{"type":"Point","coordinates":[-73.989698,40.744594]}},{"name":"SureSpeak","category_code":"games_video","city":"Chicago","lat":41.889183,"long":-87.632519,"position":{"type":"Point","coordinates":[-87.632519,41.889183]}},{"name":"Awdio","category_code":"games_video","city":"Paris","lat":48.887534,"long":2.356288,"position":{"type":"Point","coordinates":[2.356288,48.887534]}},{"name":"DocVerse","category_code":"web","city":"San Francisco","lat":37.788115,"long":-122.397141,"position":{"type":"Point","coordinates":[-122.397141,37.788115]}},{"name":"Yipit","category_code":"web","city":"New York","lat":40.744618,"long":-73.987764,"position":{"type":"Point","coordinates":[-73.987764,40.744618]}},{"name":"Next Jump","category_code":"ecommerce","city":"New York","lat":40.7451545,"long":-73.9869549,"position":{"type":"Point","coordinates":[-73.9869549,40.7451545]}},{"name":"Citizenside","category_code":"games_video","city":"Paris","lat":48.8926988,"long":2.3179601,"position":{"type":"Point","coordinates":[2.3179601,48.8926988]}},{"name":"Centro","category_code":"advertising","city":"Chicago","lat":41.889853,"long":-87.6355433,"position":{"type":"Point","coordinates":[-87.6355433,41.889853]}},{"name":"Centro","category_code":"advertising","city":"New York","lat":40.7408753,"long":-73.9920174,"position":{"type":"Point","coordinates":[-73.9920174,40.7408753]}},{"name":"Centro","category_code":"advertising","city":"Santa Monica","lat":34.0312388,"long":-118.4735062,"position":{"type":"Point","coordinates":[-118.4735062,34.0312388]}},{"name":"kidthing","category_code":"ecommerce","city":"Los Angeles","lat":34.045845,"long":-118.237811,"position":{"type":"Point","coordinates":[-118.237811,34.045845]}},{"name":"GetBack","category_code":"web","city":"Los Angeles","lat":34.0342337,"long":-118.4536137,"position":{"type":"Point","coordinates":[-118.4536137,34.0342337]}},{"name":"Verismo Networks","category_code":"games_video","city":"Mountain View","lat":37.3874345,"long":-122.051793,"position":{"type":"Point","coordinates":[-122.051793,37.3874345]}},{"name":"SLI Systems","category_code":"web","city":"San Jose","lat":37.3183744,"long":-122.0302814,"position":{"type":"Point","coordinates":[-122.0302814,37.3183744]}},{"name":"DeepDyve","category_code":"web","city":"Sunnyvale","lat":37.377787,"long":-122.029217,"position":{"type":"Point","coordinates":[-122.029217,37.377787]}},{"name":"One True Media","category_code":"games_video","city":"Redwood City","lat":37.485824,"long":-122.212095,"position":{"type":"Point","coordinates":[-122.212095,37.485824]}},{"name":"PatientKeeper","category_code":"software","city":"Waltham","lat":42.357119,"long":-71.1858605,"position":{"type":"Point","coordinates":[-71.1858605,42.357119]}},{"name":"Eyeview","category_code":"advertising","city":"New York","lat":42.4898278,"long":-71.1993106,"position":{"type":"Point","coordinates":[-71.1993106,42.4898278]}},{"name":"SkyPilot Networks","category_code":"mobile","city":"Santa Clara","lat":37.381876,"long":-121.95993,"position":{"type":"Point","coordinates":[-121.95993,37.381876]}},{"name":"ShipServ","category_code":"ecommerce","city":"London","lat":51.4629038,"long":-0.263377,"position":{"type":"Point","coordinates":[-0.263377,51.4629038]}},{"name":"Imagine Communications","category_code":"software","city":"San Diego","lat":32.9388917,"long":-117.2398594,"position":{"type":"Point","coordinates":[-117.2398594,32.9388917]}},{"name":"Apptera","category_code":"advertising","city":"Palo Alto","lat":37.4224243,"long":-122.0988161,"position":{"type":"Point","coordinates":[-122.0988161,37.4224243]}},{"name":"Movirtu","category_code":"mobile","city":"London","lat":51.5499708,"long":-0.1815999,"position":{"type":"Point","coordinates":[-0.1815999,51.5499708]}},{"name":"MediaMath","category_code":"advertising","city":"New York","lat":40.756799,"long":-73.9763479,"position":{"type":"Point","coordinates":[-73.9763479,40.756799]}},{"name":"Nuxeo","category_code":"software","city":"Paris","lat":48.8656319,"long":2.392119,"position":{"type":"Point","coordinates":[2.392119,48.8656319]}},{"name":"Nuxeo","category_code":"software","city":"Cambridge","lat":42.3904729,"long":-71.1423056,"position":{"type":"Point","coordinates":[-71.1423056,42.3904729]}},{"name":"WiChorus","category_code":"mobile","city":"San Jose","lat":37.409096,"long":-121.943191,"position":{"type":"Point","coordinates":[-121.943191,37.409096]}},{"name":"Synthesio","category_code":"software","city":"New York","lat":40.7431836,"long":-73.9935011,"position":{"type":"Point","coordinates":[-73.9935011,40.7431836]}},{"name":"LoopNet","category_code":"ecommerce","city":"San Francisco","lat":37.7759421,"long":-122.3931139,"position":{"type":"Point","coordinates":[-122.3931139,37.7759421]}},{"name":"Fanminder","category_code":"advertising","city":"San Francisco","lat":37.3792486,"long":-122.1151274,"position":{"type":"Point","coordinates":[-122.1151274,37.3792486]}},{"name":"Virtual Bridges","category_code":"software","city":"Austin","lat":30.27995,"long":-97.807274,"position":{"type":"Point","coordinates":[-97.807274,30.27995]}},{"name":"Verix","category_code":"software","city":"Mountain View","lat":37.4187022,"long":-122.0874129,"position":{"type":"Point","coordinates":[-122.0874129,37.4187022]}},{"name":"CrownPeak","category_code":"software","city":"Los Angeles","lat":34.0240159,"long":-118.3767176,"position":{"type":"Point","coordinates":[-118.3767176,34.0240159]}},{"name":"OwnerIQ","category_code":"advertising","city":"Boston","lat":42.3472851,"long":-71.0499948,"position":{"type":"Point","coordinates":[-71.0499948,42.3472851]}},{"name":"People Capital","category_code":"web","city":"New York","lat":40.756054,"long":-73.986951,"position":{"type":"Point","coordinates":[-73.986951,40.756054]}},{"name":"Adjug","category_code":"advertising","city":"London","lat":51.5441671,"long":-0.1506897,"position":{"type":"Point","coordinates":[-0.1506897,51.5441671]}},{"name":"Tableau Software","category_code":"software","city":"Seattle","lat":47.6504518,"long":-122.3545086,"position":{"type":"Point","coordinates":[-122.3545086,47.6504518]}},{"name":"iPerceptions","category_code":"web","city":"New York","lat":40.7619759,"long":-73.9725773,"position":{"type":"Point","coordinates":[-73.9725773,40.7619759]}},{"name":"LucidMedia","category_code":"advertising","city":"Reston","lat":38.9455881,"long":-77.3430173,"position":{"type":"Point","coordinates":[-77.3430173,38.9455881]}},{"name":"LucidMedia","category_code":"advertising","city":"New York","lat":40.751336,"long":-73.980739,"position":{"type":"Point","coordinates":[-73.980739,40.751336]}},{"name":"YieldBuild","category_code":"advertising","city":"San Francisco","lat":37.7877967,"long":-122.3989376,"position":{"type":"Point","coordinates":[-122.3989376,37.7877967]}},{"name":"Ekahau","category_code":"web","city":"Reston","lat":37.2808523,"long":-122.0031531,"position":{"type":"Point","coordinates":[-122.0031531,37.2808523]}},{"name":"Modelinia","category_code":"web","city":"New York","lat":40.739867,"long":-73.990024,"position":{"type":"Point","coordinates":[-73.990024,40.739867]}},{"name":"Broadchoice","category_code":"software","city":"San Mateo","lat":37.553743,"long":-122.300246,"position":{"type":"Point","coordinates":[-122.300246,37.553743]}},{"name":"Altierre","category_code":"mobile","city":"San Jose","lat":37.3968262,"long":-121.8957166,"position":{"type":"Point","coordinates":[-121.8957166,37.3968262]}},{"name":"Drync","category_code":"mobile","city":"Boston","lat":42.376862,"long":-71.14462,"position":{"type":"Point","coordinates":[-71.14462,42.376862]}},{"name":"Clikthrough","category_code":"software","city":"San Francisco","lat":37.7965781,"long":-122.4022856,"position":{"type":"Point","coordinates":[-122.4022856,37.7965781]}},{"name":"SolarWinds","category_code":"software","city":"Austin","lat":30.245535,"long":-97.805621,"position":{"type":"Point","coordinates":[-97.805621,30.245535]}},{"name":"BlueKai","category_code":"advertising","city":"New York","lat":40.760955,"long":-73.968441,"position":{"type":"Point","coordinates":[-73.968441,40.760955]}},{"name":"Jaspersoft","category_code":"software","city":"San Francisco","lat":37.765388,"long":-122.403111,"position":{"type":"Point","coordinates":[-122.403111,37.765388]}},{"name":"StockTwits","category_code":"web","city":"San Diego","lat":32.7161896,"long":-117.168697,"position":{"type":"Point","coordinates":[-117.168697,32.7161896]}},{"name":"Proclivity Systems","category_code":"software","city":"New York","lat":40.738954,"long":-73.992,"position":{"type":"Point","coordinates":[-73.992,40.738954]}},{"name":"Envivio","category_code":"software","city":"San Francisco","lat":37.665469,"long":-122.38222,"position":{"type":"Point","coordinates":[-122.38222,37.665469]}},{"name":"Hanger Network In-Home Media","category_code":"advertising","city":"New York","lat":40.769375,"long":-73.982635,"position":{"type":"Point","coordinates":[-73.982635,40.769375]}},{"name":"Plusmo","category_code":"mobile","city":"Santa Clara","lat":37.400367,"long":-121.985711,"position":{"type":"Point","coordinates":[-121.985711,37.400367]}},{"name":"mBeat Media","category_code":"mobile","city":"Reston","lat":38.94794,"long":-77.347961,"position":{"type":"Point","coordinates":[-77.347961,38.94794]}},{"name":"ClickSquared","category_code":"software","city":"Boston","lat":42.3913892,"long":-71.2709869,"position":{"type":"Point","coordinates":[-71.2709869,42.3913892]}},{"name":"RGB Networks","category_code":"games_video","city":"Sunnyvale","lat":37.4123706,"long":-122.0216271,"position":{"type":"Point","coordinates":[-122.0216271,37.4123706]}},{"name":"Anystream","category_code":"software","city":"Waltham","lat":42.400416,"long":-71.255286,"position":{"type":"Point","coordinates":[-71.255286,42.400416]}},{"name":"Aconex","category_code":"software","city":"London","lat":51.5117478,"long":-0.1200848,"position":{"type":"Point","coordinates":[-0.1200848,51.5117478]}},{"name":"Conviva","category_code":"software","city":"San Mateo","lat":37.552806,"long":-122.2916021,"position":{"type":"Point","coordinates":[-122.2916021,37.552806]}},{"name":"SeeSaw Networks","category_code":"advertising","city":"San Francisco","lat":37.791564,"long":-122.399981,"position":{"type":"Point","coordinates":[-122.399981,37.791564]}},{"name":"IMedExchange","category_code":"web","city":"Seattle","lat":47.6136485,"long":-122.3371174,"position":{"type":"Point","coordinates":[-122.3371174,47.6136485]}},{"name":"BeliefNetworks","category_code":"software","city":"New York","lat":40.746944,"long":-73.983926,"position":{"type":"Point","coordinates":[-73.983926,40.746944]}},{"name":"Robotgalaxy","category_code":"games_video","city":"New York","lat":40.737216,"long":-73.990947,"position":{"type":"Point","coordinates":[-73.990947,40.737216]}},{"name":"Proofpoint","category_code":"software","city":"Sunnyvale","lat":37.400751,"long":-122.031591,"position":{"type":"Point","coordinates":[-122.031591,37.400751]}},{"name":"Sonopia","category_code":"mobile","city":"Menlo Park","lat":37.477944,"long":-122.151234,"position":{"type":"Point","coordinates":[-122.151234,37.477944]}},{"name":"3Leaf","category_code":"software","city":"Santa Clara","lat":37.381034,"long":-121.971487,"position":{"type":"Point","coordinates":[-121.971487,37.381034]}},{"name":"Sennari","category_code":"software","city":"Los Angeles","lat":33.9782287,"long":-118.4303427,"position":{"type":"Point","coordinates":[-118.4303427,33.9782287]}},{"name":"Sennari","category_code":"software","city":"Los Angeles","lat":33.9782287,"long":-118.4303427,"position":{"type":"Point","coordinates":[-118.4303427,33.9782287]}},{"name":"Sonim Technologies","category_code":"mobile","city":"San Mateo","lat":37.553121,"long":-122.301534,"position":{"type":"Point","coordinates":[-122.301534,37.553121]}},{"name":"Conformia Software","category_code":"software","city":"Sunnyvale","lat":37.377972,"long":-122.033361,"position":{"type":"Point","coordinates":[-122.033361,37.377972]}},{"name":"Neopolitan Networks","category_code":"web","city":"Palo Alto","lat":37.426316,"long":-122.141082,"position":{"type":"Point","coordinates":[-122.141082,37.426316]}},{"name":"Packet Design","category_code":"software","city":"Santa Clara","lat":37.3821368,"long":-121.970505,"position":{"type":"Point","coordinates":[-121.970505,37.3821368]}},{"name":"Viva Vision","category_code":"web","city":"San Diego","lat":32.903231,"long":-117.188987,"position":{"type":"Point","coordinates":[-117.188987,32.903231]}},{"name":"Viva Vision","category_code":"web","city":"Santa Monica","lat":34.020165,"long":-118.49641,"position":{"type":"Point","coordinates":[-118.49641,34.020165]}},{"name":"LiveVox","category_code":"web","city":"San Francisco","lat":37.794643,"long":-122.401144,"position":{"type":"Point","coordinates":[-122.401144,37.794643]}},{"name":"Jasper Wireless","category_code":"mobile","city":"Mountain View","lat":37.394392,"long":-122.04221,"position":{"type":"Point","coordinates":[-122.04221,37.394392]}},{"name":"VoloMedia","category_code":"advertising","city":"Sunnyvale","lat":37.382376,"long":-122.037607,"position":{"type":"Point","coordinates":[-122.037607,37.382376]}},{"name":"Dragonfly","category_code":"web","city":"New York","lat":40.756054,"long":-73.986951,"position":{"type":"Point","coordinates":[-73.986951,40.756054]}},{"name":"Fuego Nation","category_code":"web","city":"San Francisco","lat":37.775196,"long":-122.419204,"position":{"type":"Point","coordinates":[-122.419204,37.775196]}},{"name":"Clarus Systems","category_code":"software","city":"Redwood City","lat":37.5380187,"long":-122.2533836,"position":{"type":"Point","coordinates":[-122.2533836,37.5380187]}},{"name":"Kickfire","category_code":"software","city":"Santa Clara","lat":37.381876,"long":-121.95993,"position":{"type":"Point","coordinates":[-121.95993,37.381876]}},{"name":"Spring Mobile Solutions","category_code":"mobile","city":"Seattle","lat":47.6154389,"long":-122.3479567,"position":{"type":"Point","coordinates":[-122.3479567,47.6154389]}},{"name":"AdYouNet","category_code":"advertising","city":"Palo Alto","lat":37.431941,"long":-122.103076,"position":{"type":"Point","coordinates":[-122.103076,37.431941]}},{"name":"RingCube Technologies","category_code":"software","city":"Mountain View","lat":37.3915589,"long":-122.0702643,"position":{"type":"Point","coordinates":[-122.0702643,37.3915589]}},{"name":"Meru Networks","category_code":"mobile","city":"Sunnyvale","lat":37.400867,"long":-122.033281,"position":{"type":"Point","coordinates":[-122.033281,37.400867]}},{"name":"Rohati Systems","category_code":"software","city":"Sunnyvale","lat":37.4071848,"long":-122.0194922,"position":{"type":"Point","coordinates":[-122.0194922,37.4071848]}},{"name":"Transera Communications","category_code":"software","city":"Sunnyvale","lat":37.3521697,"long":-122.0622892,"position":{"type":"Point","coordinates":[-122.0622892,37.3521697]}},{"name":"Verient","category_code":"software","city":"San Jose","lat":37.3033387,"long":-121.979634,"position":{"type":"Point","coordinates":[-121.979634,37.3033387]}},{"name":"Videonline Communications","category_code":"web","city":"Redwood City","lat":37.495996,"long":-122.223273,"position":{"type":"Point","coordinates":[-122.223273,37.495996]}},{"name":"Sensory Networks","category_code":"web","city":"Mountain View","lat":37.430025,"long":-122.09998,"position":{"type":"Point","coordinates":[-122.09998,37.430025]}},{"name":"ID Analytics","category_code":"web","city":"San Diego","lat":32.7154,"long":-117.1565,"position":{"type":"Point","coordinates":[-117.1565,32.7154]}},{"name":"Double Fusion","category_code":"web","city":"San Francisco","lat":37.7887135,"long":-122.3927145,"position":{"type":"Point","coordinates":[-122.3927145,37.7887135]}},{"name":"Aicent","category_code":"mobile","city":"San Jose","lat":37.384211,"long":-121.924797,"position":{"type":"Point","coordinates":[-121.924797,37.384211]}},{"name":"Mantara","category_code":"software","city":"New York","lat":40.726517,"long":-74.032177,"position":{"type":"Point","coordinates":[-74.032177,40.726517]}},{"name":"5th Finger","category_code":"mobile","city":"San Francisco","lat":37.7900992,"long":-122.4021988,"position":{"type":"Point","coordinates":[-122.4021988,37.7900992]}},{"name":"Pano Logic","category_code":"software","city":"Menlo Park","lat":37.477037,"long":-122.15164,"position":{"type":"Point","coordinates":[-122.15164,37.477037]}},{"name":"SmartTurn","category_code":"advertising","city":"San Francisco","lat":37.789801,"long":-122.395327,"position":{"type":"Point","coordinates":[-122.395327,37.789801]}},{"name":"SpongeFish","category_code":"web","city":"San Francisco","lat":37.7800788,"long":-122.3943096,"position":{"type":"Point","coordinates":[-122.3943096,37.7800788]}},{"name":"Tendril","category_code":"software","city":"Boulder","lat":40.026422,"long":-105.228284,"position":{"type":"Point","coordinates":[-105.228284,40.026422]}},{"name":"Adaptive Planning","category_code":"software","city":"Mountain View","lat":37.4192309,"long":-122.0887097,"position":{"type":"Point","coordinates":[-122.0887097,37.4192309]}},{"name":"Xumii","category_code":"mobile","city":"San Mateo","lat":37.563585,"long":-122.324621,"position":{"type":"Point","coordinates":[-122.324621,37.563585]}},{"name":"Nangate","category_code":"mobile","city":"Sunnyvale","lat":37.4043966,"long":-122.0213965,"position":{"type":"Point","coordinates":[-122.0213965,37.4043966]}},{"name":"NorthStar Systems International","category_code":"software","city":"San Francisco","lat":37.789551,"long":-122.40036,"position":{"type":"Point","coordinates":[-122.40036,37.789551]}},{"name":"NorthStar Systems International","category_code":"software","city":"New York","lat":40.707645,"long":-74.010816,"position":{"type":"Point","coordinates":[-74.010816,40.707645]}},{"name":"Wazoo Sports","category_code":"games_video","city":"London","lat":37.1286,"long":-84.0834,"position":{"type":"Point","coordinates":[-84.0834,37.1286]}},{"name":"WebLayers","category_code":"software","city":"Cambridge","lat":42.377535,"long":-71.149057,"position":{"type":"Point","coordinates":[-71.149057,42.377535]}},{"name":"Pictela","category_code":"advertising","city":"New York","lat":40.756054,"long":-73.986951,"position":{"type":"Point","coordinates":[-73.986951,40.756054]}},{"name":"Roundbox","category_code":"software","city":"San Francisco","lat":37.7864636,"long":-122.3978187,"position":{"type":"Point","coordinates":[-122.3978187,37.7864636]}},{"name":"Car Advisory Network","category_code":"web","city":"Palo Alto","lat":37.445335,"long":-122.15833,"position":{"type":"Point","coordinates":[-122.15833,37.445335]}},{"name":"Ruckus Wireless","category_code":"mobile","city":"Sunnyvale","lat":37.3913,"long":-122.037538,"position":{"type":"Point","coordinates":[-122.037538,37.3913]}},{"name":"BrightTALK","category_code":"software","city":"London","lat":51.5157682,"long":-0.0970749,"position":{"type":"Point","coordinates":[-0.0970749,51.5157682]}},{"name":"BrightTALK","category_code":"software","city":"San Francisco","lat":37.791128,"long":-122.398126,"position":{"type":"Point","coordinates":[-122.398126,37.791128]}},{"name":"BrightTALK","category_code":"software","city":"New York","lat":40.7398335,"long":-73.9931582,"position":{"type":"Point","coordinates":[-73.9931582,40.7398335]}},{"name":"VisualOn","category_code":"software","city":"Santa Clara","lat":37.270518,"long":-121.955879,"position":{"type":"Point","coordinates":[-121.955879,37.270518]}},{"name":"Heyzap","category_code":"games_video","city":"San Francisco","lat":37.7905538,"long":-122.4041485,"position":{"type":"Point","coordinates":[-122.4041485,37.7905538]}},{"name":"BroadLight","category_code":"software","city":"Santa Clara","lat":37.404044,"long":-121.978956,"position":{"type":"Point","coordinates":[-121.978956,37.404044]}},{"name":"Pulse Entertainment","category_code":"mobile","city":"San Francisco","lat":37.796396,"long":-122.404869,"position":{"type":"Point","coordinates":[-122.404869,37.796396]}},{"name":"KlickSports","category_code":"mobile","city":"Los Angeles","lat":34.0431973,"long":-118.445584,"position":{"type":"Point","coordinates":[-118.445584,34.0431973]}},{"name":"PEX Card","category_code":"software","city":"New York","lat":40.752539,"long":-73.987871,"position":{"type":"Point","coordinates":[-73.987871,40.752539]}},{"name":"Donnorwood Media","category_code":"web","city":"San Francisco","lat":37.785271,"long":-122.397582,"position":{"type":"Point","coordinates":[-122.397582,37.785271]}},{"name":"CloudShield Technologies","category_code":"software","city":"Sunnyvale","lat":37.409618,"long":-122.017792,"position":{"type":"Point","coordinates":[-122.017792,37.409618]}},{"name":"Open Kernel Labs","category_code":"software","city":"Chicago","lat":41.878984,"long":-87.637,"position":{"type":"Point","coordinates":[-87.637,41.878984]}},{"name":"Xangati","category_code":"software","city":"San Jose","lat":37.32136,"long":-122.014616,"position":{"type":"Point","coordinates":[-122.014616,37.32136]}},{"name":"DemandTec","category_code":"software","city":"London","lat":51.5069206,"long":-0.1249337,"position":{"type":"Point","coordinates":[-0.1249337,51.5069206]}},{"name":"ITM Software","category_code":"software","city":"Santa Clara","lat":37.3731161,"long":-121.9659387,"position":{"type":"Point","coordinates":[-121.9659387,37.3731161]}},{"name":"CyberArts","category_code":"software","city":"San Francisco","lat":37.737609,"long":-122.435399,"position":{"type":"Point","coordinates":[-122.435399,37.737609]}},{"name":"SkyData Systems","category_code":"mobile","city":"San Mateo","lat":37.55873,"long":-122.27992,"position":{"type":"Point","coordinates":[-122.27992,37.55873]}},{"name":"Untangle","category_code":"software","city":"Sunnyvale","lat":37.5374322,"long":-122.3262074,"position":{"type":"Point","coordinates":[-122.3262074,37.5374322]}},{"name":"Ubicom","category_code":"software","city":"San Jose","lat":37.414105,"long":-121.940895,"position":{"type":"Point","coordinates":[-121.940895,37.414105]}},{"name":"UpSpring","category_code":"web","city":"Austin","lat":30.396276,"long":-97.732769,"position":{"type":"Point","coordinates":[-97.732769,30.396276]}},{"name":"Corefino","category_code":"software","city":"Sunnyvale","lat":37.384206,"long":-121.992805,"position":{"type":"Point","coordinates":[-121.992805,37.384206]}},{"name":"Granicus","category_code":"software","city":"San Francisco","lat":37.787445,"long":-122.397847,"position":{"type":"Point","coordinates":[-122.397847,37.787445]}},{"name":"NetStreams","category_code":"games_video","city":"Austin","lat":30.424305,"long":-97.709981,"position":{"type":"Point","coordinates":[-97.709981,30.424305]}},{"name":"NoiseFree","category_code":"software","city":"Sunnyvale","lat":37.3868616,"long":-121.9917771,"position":{"type":"Point","coordinates":[-121.9917771,37.3868616]}},{"name":"GestureTek","category_code":"software","city":"Sunnyvale","lat":37.384206,"long":-121.992805,"position":{"type":"Point","coordinates":[-121.992805,37.384206]}},{"name":"Good Technology","category_code":"mobile","city":"Sunnyvale","lat":37.518539,"long":-122.254275,"position":{"type":"Point","coordinates":[-122.254275,37.518539]}},{"name":"Good Technology","category_code":"mobile","city":"Chicago","lat":41.8812179,"long":-87.637522,"position":{"type":"Point","coordinates":[-87.637522,41.8812179]}},{"name":"Good Technology","category_code":"mobile","city":"New York","lat":40.7511339,"long":-73.978807,"position":{"type":"Point","coordinates":[-73.978807,40.7511339]}},{"name":"Good Technology","category_code":"mobile","city":"Seattle","lat":47.6246175,"long":-122.35931,"position":{"type":"Point","coordinates":[-122.35931,47.6246175]}},{"name":"Backchannelmedia","category_code":"software","city":"Boston","lat":42.3514855,"long":-71.0572879,"position":{"type":"Point","coordinates":[-71.0572879,42.3514855]}},{"name":"Intelliden","category_code":"software","city":"Menlo Park","lat":37.4587657,"long":-122.1725191,"position":{"type":"Point","coordinates":[-122.1725191,37.4587657]}},{"name":"FastScaleTechnology","category_code":"software","city":"Santa Clara","lat":37.370056,"long":-121.973157,"position":{"type":"Point","coordinates":[-121.973157,37.370056]}},{"name":"Glu Mobile","category_code":"mobile","city":"San Francisco","lat":37.7911371,"long":-122.3973539,"position":{"type":"Point","coordinates":[-122.3973539,37.7911371]}},{"name":"Comixology","category_code":"games_video","city":"New York","lat":40.740512,"long":-73.987794,"position":{"type":"Point","coordinates":[-73.987794,40.740512]}},{"name":"SynapticMash","category_code":"software","city":"Seattle","lat":47.6098932,"long":-122.3379255,"position":{"type":"Point","coordinates":[-122.3379255,47.6098932]}},{"name":"Apprion","category_code":"mobile","city":"Mountain View","lat":37.417485,"long":-122.075789,"position":{"type":"Point","coordinates":[-122.075789,37.417485]}},{"name":"iPrint","category_code":"web","city":"Redwood City","lat":37.489184,"long":-122.217166,"position":{"type":"Point","coordinates":[-122.217166,37.489184]}},{"name":"Telsima","category_code":"web","city":"Sunnyvale","lat":37.4092917,"long":-122.014027,"position":{"type":"Point","coordinates":[-122.014027,37.4092917]}},{"name":"NEXAGE","category_code":"mobile","city":"Boston","lat":37.4777028,"long":-121.9250553,"position":{"type":"Point","coordinates":[-121.9250553,37.4777028]}},{"name":"Element Labs","category_code":"web","city":"Santa Clara","lat":37.380364,"long":-121.9823779,"position":{"type":"Point","coordinates":[-121.9823779,37.380364]}},{"name":"MessageCast","category_code":"web","city":"Palo Alto","lat":37.42583,"long":-122.123092,"position":{"type":"Point","coordinates":[-122.123092,37.42583]}},{"name":"Quantum Secure","category_code":"software","city":"San Jose","lat":37.367838,"long":-121.915594,"position":{"type":"Point","coordinates":[-121.915594,37.367838]}},{"name":"Neocase Software","category_code":"software","city":"San Francisco","lat":37.785655,"long":-122.398393,"position":{"type":"Point","coordinates":[-122.398393,37.785655]}},{"name":"Atrenta","category_code":"software","city":"San Jose","lat":37.371088,"long":-121.925355,"position":{"type":"Point","coordinates":[-121.925355,37.371088]}},{"name":"M-Factor","category_code":"software","city":"San Mateo","lat":37.555962,"long":-122.288006,"position":{"type":"Point","coordinates":[-122.288006,37.555962]}},{"name":"TRAFFIQ","category_code":"advertising","city":"New York","lat":40.7429533,"long":-73.9844611,"position":{"type":"Point","coordinates":[-73.9844611,40.7429533]}},{"name":"Serus","category_code":"web","city":"Sunnyvale","lat":37.39853,"long":-122.036018,"position":{"type":"Point","coordinates":[-122.036018,37.39853]}},{"name":"Vocera Communications","category_code":"mobile","city":"San Jose","lat":37.3190224,"long":-121.911101,"position":{"type":"Point","coordinates":[-121.911101,37.3190224]}},{"name":"MiNOWireless","category_code":"software","city":"Santa Clara","lat":37.404044,"long":-121.978956,"position":{"type":"Point","coordinates":[-121.978956,37.404044]}},{"name":"Staccato Communications","category_code":"mobile","city":"San Diego","lat":32.899333,"long":-117.194815,"position":{"type":"Point","coordinates":[-117.194815,32.899333]}},{"name":"Carrier IQ","category_code":"mobile","city":"Mountain View","lat":37.3955775,"long":-122.0833286,"position":{"type":"Point","coordinates":[-122.0833286,37.3955775]}},{"name":"Teracent","category_code":"advertising","city":"San Mateo","lat":37.561877,"long":-122.325248,"position":{"type":"Point","coordinates":[-122.325248,37.561877]}},{"name":"KODA","category_code":"web","city":"San Francisco","lat":37.788796,"long":-122.40971,"position":{"type":"Point","coordinates":[-122.40971,37.788796]}},{"name":"Interface21","category_code":"software","city":"San Mateo","lat":37.548482,"long":-122.320534,"position":{"type":"Point","coordinates":[-122.320534,37.548482]}},{"name":"OnRequest Images","category_code":"software","city":"Seattle","lat":47.6075374,"long":-122.3403478,"position":{"type":"Point","coordinates":[-122.3403478,47.6075374]}},{"name":"WordStream","category_code":"advertising","city":"Boston","lat":42.354257,"long":-71.056605,"position":{"type":"Point","coordinates":[-71.056605,42.354257]}},{"name":"Medio","category_code":"software","city":"Seattle","lat":47.611827,"long":-122.331308,"position":{"type":"Point","coordinates":[-122.331308,47.611827]}},{"name":"Socialize","category_code":"mobile","city":"San Francisco","lat":38.88521,"long":-76.998641,"position":{"type":"Point","coordinates":[-76.998641,38.88521]}},{"name":"TheMarkets","category_code":"web","city":"New York","lat":40.762674,"long":-73.9821315,"position":{"type":"Point","coordinates":[-73.9821315,40.762674]}},{"name":"Sittercity","category_code":"web","city":"Chicago","lat":41.8879192,"long":-87.6354206,"position":{"type":"Point","coordinates":[-87.6354206,41.8879192]}},{"name":"Gecko Audio","category_code":"software","city":"Palo Alto","lat":37.437328,"long":-122.159928,"position":{"type":"Point","coordinates":[-122.159928,37.437328]}},{"name":"The Talk Market","category_code":"ecommerce","city":"New York","lat":40.756054,"long":-73.986951,"position":{"type":"Point","coordinates":[-73.986951,40.756054]}},{"name":"Masabi","category_code":"mobile","city":"London","lat":51.503753,"long":-0.0965536,"position":{"type":"Point","coordinates":[-0.0965536,51.503753]}},{"name":"Casabi","category_code":"mobile","city":"Paris","lat":48.8722501,"long":2.3283343,"position":{"type":"Point","coordinates":[2.3283343,48.8722501]}},{"name":"Space-Time Insight","category_code":"software","city":"San Mateo","lat":37.555773,"long":-122.27977,"position":{"type":"Point","coordinates":[-122.27977,37.555773]}},{"name":"Delphix","category_code":"software","city":"Menlo Park","lat":37.4239496,"long":-122.1011815,"position":{"type":"Point","coordinates":[-122.1011815,37.4239496]}},{"name":"Questra","category_code":"software","city":"Redwood City","lat":37.5384185,"long":-122.252115,"position":{"type":"Point","coordinates":[-122.252115,37.5384185]}},{"name":"Plastic Jungle","category_code":"ecommerce","city":"San Mateo","lat":37.400465,"long":-122.073003,"position":{"type":"Point","coordinates":[-122.073003,37.400465]}},{"name":"7 Billion People","category_code":"software","city":"Austin","lat":30.408322,"long":-97.748077,"position":{"type":"Point","coordinates":[-97.748077,30.408322]}},{"name":"Fortumo","category_code":"mobile","city":"San Francisco","lat":59.42145,"long":24.8021233,"position":{"type":"Point","coordinates":[24.8021233,59.42145]}},{"name":"Eightfold Logic","category_code":"advertising","city":"San Francisco","lat":37.7870841,"long":-122.4010675,"position":{"type":"Point","coordinates":[-122.4010675,37.7870841]}},{"name":"MyWealth","category_code":"web","city":"New York","lat":40.7038257,"long":-74.0083282,"position":{"type":"Point","coordinates":[-74.0083282,40.7038257]}},{"name":"Dasient","category_code":"web","city":"Palo Alto","lat":37.44931,"long":-122.160011,"position":{"type":"Point","coordinates":[-122.160011,37.44931]}},{"name":"Punch Entertainment","category_code":"software","city":"Palo Alto","lat":37.4233698,"long":-122.0986859,"position":{"type":"Point","coordinates":[-122.0986859,37.4233698]}},{"name":"Portero","category_code":"ecommerce","city":"New York","lat":40.74727,"long":-73.9800645,"position":{"type":"Point","coordinates":[-73.9800645,40.74727]}},{"name":"YOUnite","category_code":"web","city":"Mountain View","lat":37.388077,"long":-122.08316,"position":{"type":"Point","coordinates":[-122.08316,37.388077]}},{"name":"Luminate","category_code":"advertising","city":"Mountain View","lat":37.3998333,"long":-122.0465447,"position":{"type":"Point","coordinates":[-122.0465447,37.3998333]}},{"name":"PaperG","category_code":"advertising","city":"San Francisco","lat":37.7905948,"long":-122.406111,"position":{"type":"Point","coordinates":[-122.406111,37.7905948]}},{"name":"Major League Gaming","category_code":"games_video","city":"New York","lat":40.752672,"long":-73.97593,"position":{"type":"Point","coordinates":[-73.97593,40.752672]}},{"name":"CogniFit","category_code":"web","city":"New York","lat":47.6023367,"long":-122.2850112,"position":{"type":"Point","coordinates":[-122.2850112,47.6023367]}},{"name":"Intercasting","category_code":"mobile","city":"San Diego","lat":32.718834,"long":-117.163841,"position":{"type":"Point","coordinates":[-117.163841,32.718834]}},{"name":"L4 Mobile","category_code":"mobile","city":"Seattle","lat":47.676762,"long":-122.2049192,"position":{"type":"Point","coordinates":[-122.2049192,47.676762]}},{"name":"Imaginova","category_code":"ecommerce","city":"New York","lat":40.7454971,"long":-73.9826042,"position":{"type":"Point","coordinates":[-73.9826042,40.7454971]}},{"name":"Crispy Gamer","category_code":"games_video","city":"New York","lat":40.750597,"long":-73.985273,"position":{"type":"Point","coordinates":[-73.985273,40.750597]}},{"name":"Kashless","category_code":"ecommerce","city":"Seattle","lat":47.6257402,"long":-122.3581623,"position":{"type":"Point","coordinates":[-122.3581623,47.6257402]}},{"name":"Lombardi Software","category_code":"software","city":"Austin","lat":30.401175,"long":-97.741635,"position":{"type":"Point","coordinates":[-97.741635,30.401175]}},{"name":"UnboundID","category_code":"software","city":"Austin","lat":30.498112,"long":-97.777273,"position":{"type":"Point","coordinates":[-97.777273,30.498112]}},{"name":"MyLikes","category_code":"advertising","city":"San Francisco","lat":37.777995,"long":-122.408914,"position":{"type":"Point","coordinates":[-122.408914,37.777995]}},{"name":"Optify","category_code":"software","city":"Seattle","lat":47.603364,"long":-122.333359,"position":{"type":"Point","coordinates":[-122.333359,47.603364]}},{"name":"Cognitive Match","category_code":"advertising","city":"London","lat":51.5119418,"long":-0.0936688,"position":{"type":"Point","coordinates":[-0.0936688,51.5119418]}},{"name":"Cognitive Match","category_code":"advertising","city":"New York","lat":40.7454098,"long":-73.9822211,"position":{"type":"Point","coordinates":[-73.9822211,40.7454098]}},{"name":"Cognitive Match","category_code":"advertising","city":"Palo Alto","lat":37.380653,"long":-122.1156934,"position":{"type":"Point","coordinates":[-122.1156934,37.380653]}},{"name":"Unity Technologies","category_code":"games_video","city":"San Francisco","lat":55.6924605,"long":12.530107,"position":{"type":"Point","coordinates":[12.530107,55.6924605]}},{"name":"Simulmedia","category_code":"advertising","city":"New York","lat":40.727216,"long":-73.994797,"position":{"type":"Point","coordinates":[-73.994797,40.727216]}},{"name":"iPharro Media","category_code":"software","city":"New York","lat":40.7438356,"long":-73.9890149,"position":{"type":"Point","coordinates":[-73.9890149,40.7438356]}},{"name":"ePartners","category_code":"software","city":"Austin","lat":30.306468,"long":-97.827862,"position":{"type":"Point","coordinates":[-97.827862,30.306468]}},{"name":"ePartners","category_code":"software","city":"San Diego","lat":32.877656,"long":-117.210595,"position":{"type":"Point","coordinates":[-117.210595,32.877656]}},{"name":"ePartners","category_code":"software","city":"Reston","lat":38.955832,"long":-77.364711,"position":{"type":"Point","coordinates":[-77.364711,38.955832]}},{"name":"ePartners","category_code":"software","city":"London","lat":51.5123703,"long":-0.0865272,"position":{"type":"Point","coordinates":[-0.0865272,51.5123703]}},{"name":"33Across","category_code":"advertising","city":"New York","lat":40.75406,"long":-73.999003,"position":{"type":"Point","coordinates":[-73.999003,40.75406]}},{"name":"Cornerstone OnDemand","category_code":"software","city":"Santa Monica","lat":34.028182,"long":-118.472577,"position":{"type":"Point","coordinates":[-118.472577,34.028182]}},{"name":"SpaBooker","category_code":"software","city":"New York","lat":40.738567,"long":-73.987199,"position":{"type":"Point","coordinates":[-73.987199,40.738567]}},{"name":"Magnetic","category_code":"advertising","city":"New York","lat":40.758343,"long":-73.990152,"position":{"type":"Point","coordinates":[-73.990152,40.758343]}},{"name":"Magnetic","category_code":"advertising","city":"Santa Monica","lat":34.0188992,"long":-118.4924125,"position":{"type":"Point","coordinates":[-118.4924125,34.0188992]}},{"name":"Magnetic","category_code":"advertising","city":"Chicago","lat":41.890178,"long":-87.634115,"position":{"type":"Point","coordinates":[-87.634115,41.890178]}},{"name":"SuperSecret","category_code":"web","city":"San Francisco","lat":37.7775896,"long":-122.3956019,"position":{"type":"Point","coordinates":[-122.3956019,37.7775896]}},{"name":"Infobright","category_code":"software","city":"Chicago","lat":42.377467,"long":-71.401307,"position":{"type":"Point","coordinates":[-71.401307,42.377467]}},{"name":"SCVNGR","category_code":"games_video","city":"Boston","lat":42.3406534,"long":-71.0680027,"position":{"type":"Point","coordinates":[-71.0680027,42.3406534]}},{"name":"Transfer To","category_code":"mobile","city":"Palo Alto","lat":40.705255,"long":-74.010983,"position":{"type":"Point","coordinates":[-74.010983,40.705255]}},{"name":"Owlient","category_code":"games_video","city":"Paris","lat":48.8308091,"long":2.3032201,"position":{"type":"Point","coordinates":[2.3032201,48.8308091]}},{"name":"ividence","category_code":"advertising","city":"Paris","lat":48.8682244,"long":2.3347594,"position":{"type":"Point","coordinates":[2.3347594,48.8682244]}},{"name":"Republic Project","category_code":"advertising","city":"Santa Monica","lat":33.6156634,"long":-111.8931647,"position":{"type":"Point","coordinates":[-111.8931647,33.6156634]}},{"name":"GameChanger Media","category_code":"software","city":"New York","lat":40.7078343,"long":-74.0136605,"position":{"type":"Point","coordinates":[-74.0136605,40.7078343]}},{"name":"Z2Live","category_code":"games_video","city":"Seattle","lat":47.6103008,"long":-122.3399782,"position":{"type":"Point","coordinates":[-122.3399782,47.6103008]}},{"name":"ZillionTV","category_code":"games_video","city":"Sunnyvale","lat":37.3738725,"long":-121.9973546,"position":{"type":"Point","coordinates":[-121.9973546,37.3738725]}},{"name":"ZillionTV","category_code":"games_video","city":"Santa Monica","lat":34.016838,"long":-118.500603,"position":{"type":"Point","coordinates":[-118.500603,34.016838]}},{"name":"Ranker","category_code":"web","city":"Los Angeles","lat":34.1012181,"long":-118.325739,"position":{"type":"Point","coordinates":[-118.325739,34.1012181]}},{"name":"Tongal","category_code":"web","city":"Santa Monica","lat":34.007112,"long":-118.489748,"position":{"type":"Point","coordinates":[-118.489748,34.007112]}},{"name":"Nimsoft","category_code":"software","city":"Redwood City","lat":37.524851,"long":-122.257185,"position":{"type":"Point","coordinates":[-122.257185,37.524851]}},{"name":"qcue","category_code":"software","city":"Austin","lat":30.396989,"long":-97.735768,"position":{"type":"Point","coordinates":[-97.735768,30.396989]}},{"name":"MetricStream","category_code":"software","city":"Palo Alto","lat":37.446535,"long":-122.118794,"position":{"type":"Point","coordinates":[-122.118794,37.446535]}},{"name":"Newser","category_code":"web","city":"Chicago","lat":41.879535,"long":-87.624333,"position":{"type":"Point","coordinates":[-87.624333,41.879535]}},{"name":"MedAptus","category_code":"software","city":"Boston","lat":42.3538857,"long":-71.0561903,"position":{"type":"Point","coordinates":[-71.0561903,42.3538857]}},{"name":"Adapx","category_code":"software","city":"Seattle","lat":47.603873,"long":-122.3339579,"position":{"type":"Point","coordinates":[-122.3339579,47.603873]}},{"name":"Smallaa","category_code":"web","city":"San Jose","lat":37.39458,"long":-121.928393,"position":{"type":"Point","coordinates":[-121.928393,37.39458]}},{"name":"Basho Technologies","category_code":"software","city":"Cambridge","lat":42.365867,"long":-71.092285,"position":{"type":"Point","coordinates":[-71.092285,42.365867]}},{"name":"CoTweet","category_code":"advertising","city":"San Francisco","lat":37.7405936,"long":-122.3764714,"position":{"type":"Point","coordinates":[-122.3764714,37.7405936]}},{"name":"Phurnace Software","category_code":"software","city":"Austin","lat":30.271393,"long":-97.748623,"position":{"type":"Point","coordinates":[-97.748623,30.271393]}},{"name":"Bomgar","category_code":"software","city":"Paris","lat":48.8752305,"long":2.2983373,"position":{"type":"Point","coordinates":[2.2983373,48.8752305]}},{"name":"Bomgar","category_code":"software","city":"San Francisco","lat":37.791128,"long":-122.398126,"position":{"type":"Point","coordinates":[-122.398126,37.791128]}},{"name":"Bomgar","category_code":"software","city":"Reston","lat":38.9594124,"long":-77.3563279,"position":{"type":"Point","coordinates":[-77.3563279,38.9594124]}},{"name":"WEEZEVENT","category_code":"ecommerce","city":"Paris","lat":48.8952712,"long":2.4476331,"position":{"type":"Point","coordinates":[2.4476331,48.8952712]}},{"name":"SurveyMonkey","category_code":"software","city":"Palo Alto","lat":37.453952,"long":-122.185141,"position":{"type":"Point","coordinates":[-122.185141,37.453952]}},{"name":"Factery","category_code":"web","city":"Menlo Park","lat":37.4484914,"long":-122.1802812,"position":{"type":"Point","coordinates":[-122.1802812,37.4484914]}},{"name":"Ipanema Technologies","category_code":"software","city":"Waltham","lat":42.3917693,"long":-71.2576246,"position":{"type":"Point","coordinates":[-71.2576246,42.3917693]}},{"name":"Milo","category_code":"web","city":"Palo Alto","lat":37.444531,"long":-122.163352,"position":{"type":"Point","coordinates":[-122.163352,37.444531]}},{"name":"IMshopping","category_code":"ecommerce","city":"Santa Clara","lat":37.399208,"long":-121.97895,"position":{"type":"Point","coordinates":[-121.97895,37.399208]}},{"name":"Metreos Corporation","category_code":"software","city":"Austin","lat":30.2350399,"long":-97.8001299,"position":{"type":"Point","coordinates":[-97.8001299,30.2350399]}},{"name":"Gist","category_code":"web","city":"Seattle","lat":47.6008183,"long":-122.334117,"position":{"type":"Point","coordinates":[-122.334117,47.6008183]}},{"name":"EPAM Systems","category_code":"software","city":"London","lat":51.5154835,"long":-0.0881016,"position":{"type":"Point","coordinates":[-0.0881016,51.5154835]}},{"name":"Netbiscuits","category_code":"mobile","city":"London","lat":51.513248,"long":-0.1547377,"position":{"type":"Point","coordinates":[-0.1547377,51.513248]}},{"name":"Netbiscuits","category_code":"mobile","city":"San Francisco","lat":37.7550372,"long":-122.4264417,"position":{"type":"Point","coordinates":[-122.4264417,37.7550372]}},{"name":"Servo Software","category_code":"software","city":"San Mateo","lat":37.552262,"long":-122.292146,"position":{"type":"Point","coordinates":[-122.292146,37.552262]}},{"name":"Fotomoto","category_code":"ecommerce","city":"San Francisco","lat":37.7795014,"long":-122.3948712,"position":{"type":"Point","coordinates":[-122.3948712,37.7795014]}},{"name":"Nanotron Technologies","category_code":"mobile","city":"Berlin","lat":52.5242594,"long":13.3278512,"position":{"type":"Point","coordinates":[13.3278512,52.5242594]}},{"name":"Eglue Business Technologies","category_code":"software","city":"London","lat":51.5115309,"long":-0.1392765,"position":{"type":"Point","coordinates":[-0.1392765,51.5115309]}},{"name":"AeroScout","category_code":"mobile","city":"Redwood City","lat":37.5353434,"long":-122.2558368,"position":{"type":"Point","coordinates":[-122.2558368,37.5353434]}},{"name":"VKernel Corporation","category_code":"software","city":"Boston","lat":42.3497366,"long":-71.0491901,"position":{"type":"Point","coordinates":[-71.0491901,42.3497366]}},{"name":"Shareaholic","category_code":"web","city":"Boston","lat":42.3647559,"long":-71.1032591,"position":{"type":"Point","coordinates":[-71.1032591,42.3647559]}},{"name":"Sand 9","category_code":"mobile","city":"Cambridge","lat":42.3488891,"long":-71.1068046,"position":{"type":"Point","coordinates":[-71.1068046,42.3488891]}},{"name":"Razorsight","category_code":"software","city":"Reston","lat":38.872668,"long":-77.367981,"position":{"type":"Point","coordinates":[-77.367981,38.872668]}},{"name":"Playdom","category_code":"games_video","city":"Palo Alto","lat":37.393536,"long":-122.076747,"position":{"type":"Point","coordinates":[-122.076747,37.393536]}},{"name":"First Coverage","category_code":"software","city":"Boston","lat":42.356931,"long":-71.053991,"position":{"type":"Point","coordinates":[-71.053991,42.356931]}},{"name":"Firm58","category_code":"software","city":"Chicago","lat":41.879641,"long":-87.6425816,"position":{"type":"Point","coordinates":[-87.6425816,41.879641]}},{"name":"Firm58","category_code":"software","city":"New York","lat":40.766734,"long":-73.988265,"position":{"type":"Point","coordinates":[-73.988265,40.766734]}},{"name":"Minyanville","category_code":"web","city":"New York","lat":40.755635,"long":-73.971509,"position":{"type":"Point","coordinates":[-73.971509,40.755635]}},{"name":"BillMyParents","category_code":"ecommerce","city":"San Diego","lat":32.901317,"long":-117.200492,"position":{"type":"Point","coordinates":[-117.200492,32.901317]}},{"name":"Tellme","category_code":"mobile","city":"Mountain View","lat":37.396062,"long":-122.084505,"position":{"type":"Point","coordinates":[-122.084505,37.396062]}},{"name":"AppAssure Software","category_code":"software","city":"Reston","lat":38.953083,"long":-77.335587,"position":{"type":"Point","coordinates":[-77.335587,38.953083]}},{"name":"DoubleVerify","category_code":"advertising","city":"New York","lat":40.6454932,"long":-73.9451011,"position":{"type":"Point","coordinates":[-73.9451011,40.6454932]}},{"name":"Marketcetera","category_code":"software","city":"San Francisco","lat":37.788864,"long":-122.4008487,"position":{"type":"Point","coordinates":[-122.4008487,37.788864]}},{"name":"Simparel","category_code":"software","city":"New York","lat":40.750823,"long":-73.985833,"position":{"type":"Point","coordinates":[-73.985833,40.750823]}},{"name":"TopChalks","category_code":"software","city":"Santa Clara","lat":37.398476,"long":-121.978821,"position":{"type":"Point","coordinates":[-121.978821,37.398476]}},{"name":"Garlik","category_code":"software","city":"New York","lat":40.7615818,"long":-73.970624,"position":{"type":"Point","coordinates":[-73.970624,40.7615818]}},{"name":"Saavn","category_code":"games_video","city":"New York","lat":40.743877,"long":-73.98618,"position":{"type":"Point","coordinates":[-73.98618,40.743877]}},{"name":"Playboox","category_code":"software","city":"San Francisco","lat":37.7870283,"long":-122.4000192,"position":{"type":"Point","coordinates":[-122.4000192,37.7870283]}},{"name":"Upland Software","category_code":"software","city":"Cambridge","lat":42.3656123,"long":-71.0922022,"position":{"type":"Point","coordinates":[-71.0922022,42.3656123]}},{"name":"PlantSense","category_code":"web","city":"San Francisco","lat":37.7697623,"long":-122.4183929,"position":{"type":"Point","coordinates":[-122.4183929,37.7697623]}},{"name":"My-Hammer","category_code":"web","city":"Berlin","lat":52.5092312,"long":13.3883606,"position":{"type":"Point","coordinates":[13.3883606,52.5092312]}},{"name":"Uniteam Communication","category_code":"web","city":"Paris","lat":48.8422783,"long":2.3104829,"position":{"type":"Point","coordinates":[2.3104829,48.8422783]}},{"name":"Pole Star","category_code":"software","city":"Palo Alto","lat":43.5649138,"long":1.3846826,"position":{"type":"Point","coordinates":[1.3846826,43.5649138]}},{"name":"Autoquake","category_code":"ecommerce","city":"London","lat":51.543337,"long":-0.172364,"position":{"type":"Point","coordinates":[-0.172364,51.543337]}},{"name":"2 Minutes","category_code":"games_video","city":"Paris","lat":48.8502056,"long":2.3698033,"position":{"type":"Point","coordinates":[2.3698033,48.8502056]}},{"name":"Electric Cloud","category_code":"software","city":"Sunnyvale","lat":37.3903639,"long":-122.0325963,"position":{"type":"Point","coordinates":[-122.0325963,37.3903639]}},{"name":"GameGround","category_code":"games_video","city":"New York","lat":40.756054,"long":-73.986951,"position":{"type":"Point","coordinates":[-73.986951,40.756054]}},{"name":"Blip","category_code":"games_video","city":"Santa Monica","lat":34.0272246,"long":-118.4682333,"position":{"type":"Point","coordinates":[-118.4682333,34.0272246]}},{"name":"Gravity","category_code":"advertising","city":"Santa Monica","lat":34.007967,"long":-118.489681,"position":{"type":"Point","coordinates":[-118.489681,34.007967]}},{"name":"Cocodot","category_code":"web","city":"Los Angeles","lat":34.104692,"long":-118.375698,"position":{"type":"Point","coordinates":[-118.375698,34.104692]}},{"name":"isango!","category_code":"web","city":"London","lat":51.519816,"long":-0.1361616,"position":{"type":"Point","coordinates":[-0.1361616,51.519816]}},{"name":"uControl","category_code":"software","city":"Austin","lat":30.3542873,"long":-97.7976572,"position":{"type":"Point","coordinates":[-97.7976572,30.3542873]}},{"name":"Netsize","category_code":"mobile","city":"London","lat":51.5001524,"long":-0.1262362,"position":{"type":"Point","coordinates":[-0.1262362,51.5001524]}},{"name":"Tribold","category_code":"software","city":"London","lat":51.5209358,"long":-0.1424094,"position":{"type":"Point","coordinates":[-0.1424094,51.5209358]}},{"name":"MD-IT","category_code":"software","city":"Boulder","lat":40.020421,"long":-105.236011,"position":{"type":"Point","coordinates":[-105.236011,40.020421]}},{"name":"Motion Computing","category_code":"software","city":"Austin","lat":30.182285,"long":-97.806787,"position":{"type":"Point","coordinates":[-97.806787,30.182285]}},{"name":"TVU Networks","category_code":"ecommerce","city":"Mountain View","lat":37.416349,"long":-122.085021,"position":{"type":"Point","coordinates":[-122.085021,37.416349]}},{"name":"Ykone","category_code":"web","city":"Paris","lat":48.8566667,"long":2.3509871,"position":{"type":"Point","coordinates":[2.3509871,48.8566667]}},{"name":"IdeaPaint","category_code":"ecommerce","city":"Cambridge","lat":42.3694815,"long":-71.0771871,"position":{"type":"Point","coordinates":[-71.0771871,42.3694815]}},{"name":"Moviepilot","category_code":"web","city":"Berlin","lat":52.4947266,"long":13.398504,"position":{"type":"Point","coordinates":[13.398504,52.4947266]}},{"name":"Moviepilot","category_code":"web","city":"Los Angeles","lat":34.0522342,"long":-118.2436849,"position":{"type":"Point","coordinates":[-118.2436849,34.0522342]}},{"name":"Forterra Systems","category_code":"games_video","city":"San Mateo","lat":37.561576,"long":-122.284173,"position":{"type":"Point","coordinates":[-122.284173,37.561576]}},{"name":"UTOPY","category_code":"software","city":"San Francisco","lat":37.767575,"long":-122.411157,"position":{"type":"Point","coordinates":[-122.411157,37.767575]}},{"name":"Connectiva Systems","category_code":"software","city":"New York","lat":40.755531,"long":-73.980861,"position":{"type":"Point","coordinates":[-73.980861,40.755531]}},{"name":"YCD Multimedia","category_code":"software","city":"New York","lat":40.745454,"long":-73.991674,"position":{"type":"Point","coordinates":[-73.991674,40.745454]}},{"name":"Webtrekk","category_code":"advertising","city":"Berlin","lat":52.5279255,"long":13.3813542,"position":{"type":"Point","coordinates":[13.3813542,52.5279255]}},{"name":"Global Fitness Media","category_code":"web","city":"Los Angeles","lat":34.054318,"long":-118.462876,"position":{"type":"Point","coordinates":[-118.462876,34.054318]}},{"name":"Exent","category_code":"games_video","city":"New York","lat":40.7523796,"long":-74.005568,"position":{"type":"Point","coordinates":[-74.005568,40.7523796]}},{"name":"Exent","category_code":"games_video","city":"San Francisco","lat":37.787646,"long":-122.402759,"position":{"type":"Point","coordinates":[-122.402759,37.787646]}},{"name":"Azingo","category_code":"mobile","city":"Sunnyvale","lat":37.382162,"long":-122.036301,"position":{"type":"Point","coordinates":[-122.036301,37.382162]}},{"name":"Aveksa","category_code":"software","city":"Waltham","lat":42.3988661,"long":-71.253781,"position":{"type":"Point","coordinates":[-71.253781,42.3988661]}},{"name":"WiNetworks","category_code":"mobile","city":"New York","lat":40.770437,"long":-73.990426,"position":{"type":"Point","coordinates":[-73.990426,40.770437]}},{"name":"Jasper Design Automation","category_code":"software","city":"Mountain View","lat":37.393536,"long":-122.076747,"position":{"type":"Point","coordinates":[-122.076747,37.393536]}},{"name":"FireScope","category_code":"software","city":"London","lat":51.5001524,"long":-0.1262362,"position":{"type":"Point","coordinates":[-0.1262362,51.5001524]}},{"name":"Keldelice","category_code":"web","city":"Paris","lat":48.8762858,"long":2.3484231,"position":{"type":"Point","coordinates":[2.3484231,48.8762858]}},{"name":"Struq","category_code":"advertising","city":"London","lat":51.5152023,"long":-0.1366861,"position":{"type":"Point","coordinates":[-0.1366861,51.5152023]}},{"name":"High Gear Media","category_code":"web","city":"Menlo Park","lat":37.445335,"long":-122.15833,"position":{"type":"Point","coordinates":[-122.15833,37.445335]}},{"name":"ChallengePost","category_code":"web","city":"New York","lat":40.7408042,"long":-74.00717,"position":{"type":"Point","coordinates":[-74.00717,40.7408042]}},{"name":"DeciZium","category_code":"web","city":"San Jose","lat":37.337756,"long":-121.89435,"position":{"type":"Point","coordinates":[-121.89435,37.337756]}},{"name":"AlterPoint","category_code":"software","city":"Austin","lat":30.354768,"long":-97.798152,"position":{"type":"Point","coordinates":[-97.798152,30.354768]}},{"name":"Mirage Networks","category_code":"software","city":"Chicago","lat":41.881978,"long":-87.630125,"position":{"type":"Point","coordinates":[-87.630125,41.881978]}},{"name":"Force10 Networks","category_code":"ecommerce","city":"San Jose","lat":37.418636,"long":-121.944828,"position":{"type":"Point","coordinates":[-121.944828,37.418636]}},{"name":"TeachScape","category_code":"software","city":"San Francisco","lat":37.7869047,"long":-122.4043924,"position":{"type":"Point","coordinates":[-122.4043924,37.7869047]}},{"name":"PopCap Games","category_code":"games_video","city":"Seattle","lat":47.6161693,"long":-122.3451897,"position":{"type":"Point","coordinates":[-122.3451897,47.6161693]}},{"name":"Testplant","category_code":"software","city":"London","lat":51.517356,"long":-0.1037742,"position":{"type":"Point","coordinates":[-0.1037742,51.517356]}},{"name":"Testplant","category_code":"software","city":"Boulder","lat":40.0230047,"long":-105.2532841,"position":{"type":"Point","coordinates":[-105.2532841,40.0230047]}},{"name":"BzzAgent","category_code":"advertising","city":"Boston","lat":42.341899,"long":-71.065924,"position":{"type":"Point","coordinates":[-71.065924,42.341899]}},{"name":"PacketVideo","category_code":"software","city":"San Diego","lat":32.718834,"long":-117.163841,"position":{"type":"Point","coordinates":[-117.163841,32.718834]}},{"name":"Culture Jam","category_code":"web","city":"Los Angeles","lat":34.0137151,"long":-118.4660597,"position":{"type":"Point","coordinates":[-118.4660597,34.0137151]}},{"name":"Venturi Wireless","category_code":"mobile","city":"Sunnyvale","lat":37.4099985,"long":-122.0018725,"position":{"type":"Point","coordinates":[-122.0018725,37.4099985]}},{"name":"Clavis Technology","category_code":"software","city":"Cambridge","lat":42.3626626,"long":-71.084153,"position":{"type":"Point","coordinates":[-71.084153,42.3626626]}},{"name":"FinAnalytica","category_code":"software","city":"New York","lat":40.751293,"long":-73.978887,"position":{"type":"Point","coordinates":[-73.978887,40.751293]}},{"name":"Presidium Learning","category_code":"software","city":"Reston","lat":38.947942,"long":-77.331536,"position":{"type":"Point","coordinates":[-77.331536,38.947942]}},{"name":"Ponte Solutions","category_code":"software","city":"Mountain View","lat":37.400945,"long":-122.111318,"position":{"type":"Point","coordinates":[-122.111318,37.400945]}},{"name":"PaymentOne","category_code":"ecommerce","city":"San Jose","lat":37.248043,"long":-121.776935,"position":{"type":"Point","coordinates":[-121.776935,37.248043]}},{"name":"Vigilos","category_code":"software","city":"Seattle","lat":47.6113314,"long":-122.3430581,"position":{"type":"Point","coordinates":[-122.3430581,47.6113314]}}]